place_id,place_name,type_1,type_2,type_3,price_level,average_rating,user_ratings_total,formatted_address,latitude,longitude,geohash,upper_geohash,distance,duration
ChIJmWmPnx7e4EcRAF_A3Rhoslw,Hôtel Armada,accommodation,lodging,,,4.0,11.0,"112 Av. Jean Jaurès, 76140 Le Petit-Quevilly, France",49.4267538,1.0620687,u0bc0j,u0bc0,3.1 km,40 mins
ChIJcczvNa3f4EcRjZ6lY-qx2DU,Les Pâtisseries de Gill,shopping,store,['bakery'],,4.3,34.0,"178 Rue Martainville, 76000 Rouen, France",49.43993,1.0997501,u0bc30,u0bc3,0.4 km,5 mins
ChIJWfmLQnje4EcRDMB1P2dhZJ8,Le Petit Train De Rouen,cultural,tourist_attraction,,,3.7,42.0,"25 Pl. de la Cathédrale, 76000 Rouen, France",49.4407743,1.0941337,u0bc2b,u0bc2,0.2 km,2 mins
ChIJseIX8nPe4EcRGHnYv3iAnDU,O'chicken Rice,food,restaurant,,,3.6,27.0,"38 Bd d'Orléans, 76100 Rouen, France",49.4358858,1.0849371,u0bc0x,u0bc0,1.2 km,15 mins
ChIJ37BEZxHd4EcRwZ0lZRDD1Zo,Sushi Fresh Rouen,food,restaurant,"['meal_delivery', 'meal_takeaway']",,4.6,103.0,"66 Rue de la Vicomte, 76000 Rouen, France",49.4416138,1.0892606,u0bc2b,u0bc2,0.5 km,6 mins
ChIJHe71lx3e4EcR7AmgffinBRw,Parc Paul Gauguin,nature,park,,,3.5,10.0,"All. Paul Gauguin, 76140 Le Petit-Quevilly, France",49.4284173,1.0591881,u0bc0n,u0bc0,3.3 km,43 mins
ChIJsTsNitXd4EcR71rvSUsfTtg,Les Cousines,shopping,store,['bakery'],,4.6,24.0,"16 Pl. du Lieutenant Aubert, 76000 Rouen, France",49.4413938,1.0990855,u0bc30,u0bc3,0.5 km,6 mins
ChIJU1iM2_Xf4EcR4HSCKUK596c,DE LA CAVE AU GRENIER,night_life,bar,"['liquor_store', 'store']",,4.9,23.0,"49 Rue aux Ours, 76000 Rouen, France",49.4406553,1.0911679,u0bc2b,u0bc2,0.3 km,4 mins
ChIJIdELNSvc4EcRHSOrkI_eClc,"La Boulangerie, chambre d'hôtes et B&B",accommodation,lodging,,2.0,4.9,60.0,"59 Rue Saint-Nicaise, 76000 Rouen, France",49.4451163,1.1032711,u0bc31,u0bc3,1.2 km,16 mins
ChIJt5NhDjbc4EcRcm1wFd5xHwc,Maison Du Menuisier 76 - Parqu&Fenêtre - Maison du Menuisier,shopping,store,,,4.3,19.0,"2079 Rte de Neufchâtel, 76230 Bois-Guillaume, France",49.4609107,1.1097211,u0bc3k,u0bc3,2.7 km,41 mins
ChIJGdUsAXje4EcRgdYbOm0xAiE,Darjeeling Rouen,shopping,store,['clothing_store'],,4.1,39.0,"50 Rue du Gros Horloge, 76000 Rouen, France",49.4413026,1.0922986,u0bc2b,u0bc2,0.3 km,4 mins
ChIJr9MBoELn4EcRbA9hwzyOAfg,Bijoux étoile du menhir,shopping,store,['jewelry_store'],,5.0,1.0,"Quai Emile Duchemin, 76000 Rouen, France",49.4442675,1.0582584,u0bc21,u0bc2,2.9 km,36 mins
ChIJpTx1XX_e4EcRZVmPCISPIng,L'Antidote,food,restaurant,,,5.0,1.0,"46 Rue Damiette, 76000 Rouen, France",49.4408017,1.0990569,u0bc30,u0bc3,0.5 km,6 mins
ChIJDWlDYane4EcRP7eo3n0oGRA,Au Fût de Chêne,shopping,store,['liquor_store'],,3.9,87.0,"96 Bis Rue Saint-Pierre, 76160 Darnétal, France",49.437685,1.1417039,u0bc1z,u0bc1,3.8 km,48 mins
ChIJY9MMKajd4EcRDtsW1-KOSgc,Square André Maurois,nature,park,,,4.4,17.0,"Rue Louis Ricard, 76000 Rouen, France",49.4470881,1.1001486,u0bc31,u0bc3,1.1 km,14 mins
ChIJTxzsAO3d4EcRgiQG_B4GJ78,PB Pizza Burger Rouen - Burgerstore,food,restaurant,,,4.5,11.0,"81 Rue Cauchoise, 76000 Rouen, France",49.4450033,1.0869303,u0bc29,u0bc2,0.9 km,11 mins
ChIJXSUILHne4EcRk0chYVBhqjs,Omnia République,entertainment,movie_theater,,,4.4,894.0,"28 Rue de la République, 76000 Rouen, France",49.4384136,1.0970035,u0bc0z,u0bc0,0.2 km,3 mins
ChIJcdbMsxTc4EcRm4dAyI5RE-w,L'arret pizza,food,restaurant,,1.0,3.7,150.0,"Rue du Président John Kennedy ,Angle de la, Rue Victor Boucher, 76420 Bihorel, France",49.4611893,1.130265,u0bc3s,u0bc3,4.0 km,57 mins
ChIJPbUl7nPe4EcReaKwm4Lp7zE,Les Caves,shopping,store,['liquor_store'],,4.5,91.0,"30 Bd d'Orléans, 76100 Rouen, France",49.4358141,1.0851635,u0bc0x,u0bc0,1.2 km,15 mins
ChIJAf7DGfDf4EcRHkJ3xwLWtfc,Marché Aux Affaires Rouen (City Affaires),shopping,store,,,4.3,151.0,"147 Rte de Darnétal, 76000 Rouen, France",49.4406375,1.1241213,u0bc38,u0bc3,2.6 km,33 mins
ChIJ6TW5wYbd4EcRzyOCfEnXDWI,House pizza 2,food,restaurant,,,4.4,47.0,"32 Av. de la Prte des Champs, 76000 Rouen, France",49.4431177,1.1049494,u0bc30,u0bc3,1.0 km,13 mins
ChIJeVSSk63d4EcR0X2SM-N51qc,La Belle Sneaker - Customisation sneakers,shopping,store,['shoe_store'],,5.0,55.0,"12 Bis Av. Pasteur, 76000 Rouen, France",49.4436891,1.0787,u0bc28,u0bc2,1.4 km,18 mins
ChIJT0eo1nje4EcRE2bUP-IckCA,Boulangerie Robergeot,shopping,store,['bakery'],,3.9,50.0,"3 Rue du Général Leclerc, 76000 Rouen, France",49.4391053,1.0966004,u0bc2b,u0bc2,0.2 km,2 mins
ChIJdfea1dDd4EcRaHBRGwpgv8I,Galerie LE 75,cultural,art_gallery,,,5.0,2.0,"75 Rue Bouvreuil, 76000 Rouen, France",49.4467092,1.0947637,u0bc2c,u0bc2,1.0 km,13 mins
ChIJVWQnq5bd4EcRq34dCb4ZUsU,Old Wild West,food,restaurant,,,3.4,640.0,"76 Bd Ferdinand de Lesseps, 76000 Rouen, France",49.4453484,1.0644534,u0bc21,u0bc2,2.5 km,32 mins
ChIJExDyotnd4EcRbLdQhTCf5sc,ADS Sécurité,shopping,store,['electronics_store'],,5.0,16.0,"42 Rue Jean Lecanuet, 76000 Rouen, France",49.445272,1.089889,u0bc2c,u0bc2,0.9 km,12 mins
ChIJ3fRLGFaeDEERRFrRIxyQTH4,La Pasta Tinto,food,restaurant,,2.0,4.6,1244.0,"4 Rue Alsace Lorraine, 76000 Rouen, France",49.4385847,1.1000933,u0bc30,u0bc3,0.4 km,5 mins
ChIJI9kHEXje4EcRTs6TrF37cBI,La Chaise Longue Rouen,shopping,store,"['home_goods_store', 'department_store', 'furniture_store']",,4.1,86.0,"35 Rue de la Champmesle, 76000 Rouen, France",49.4407358,1.0927033,u0bc2b,u0bc2,0.2 km,2 mins
ChIJW1TJkgHd4EcR1My4raYP7lQ,Chapelle du Carmel,cultural,museum,,,4.4,8.0,"303 Rue Robert Pinchon, 76230 Bois-Guillaume, France",49.4551608,1.1038179,u0bc35,u0bc3,2.3 km,35 mins
ChIJL3o7sNfd4EcRejBzC5jSWww,Hôtel Astrid,accommodation,lodging,,,2.9,277.0,"11 Pl. Bernard Tissot, 76000 Rouen, France",49.4483024,1.0938223,u0bc2c,u0bc2,1.2 km,16 mins
ChIJxdyLsdjd4EcRw1qOUkbaPyg,La Marmotte,food,restaurant,,,4.3,452.0,"25 Rue du Vieux Palais, 76000 Rouen, France",49.4422948,1.0865791,u0bc28,u0bc2,0.8 km,9 mins
ChIJM7D-SRPe4EcRknxCTrlivBA,Square Robert Antoine Pinchon,nature,park,,,3.6,19.0,"Rue Etienne Delarue, 76100 Rouen, France",49.4275767,1.0797663,u0bc0w,u0bc0,1.9 km,25 mins
ChIJ08P1nXje4EcR_CYRCZETYuQ,La Rose des Vents,food,restaurant,['store'],1.0,4.6,69.0,"33 Pl. de la Basse Vieille Tour, 76000 Rouen, France",49.437915,1.094342,u0bc0z,u0bc0,0.2 km,3 mins
ChIJDUzMghrd4EcR5LMBeJUIDGw,L'Empreinte des Coquets,food,restaurant,,,4.6,92.0,"1 Pl. des Coquets, 76130 Mont-Saint-Aignan, France",49.462555,1.0805185,u0bc2s,u0bc2,3.1 km,45 mins
ChIJ5-gusvnb4EcRbGK4teXusIo,Boulangerie Lefebvre,shopping,store,['bakery'],,4.0,388.0,"3 Rue de Préaux, 76160 Darnétal, France",49.4493277,1.1512314,u0bc61,u0bc6,5.0 km,1 hour 4 mins
ChIJQXCqQfzd4EcRhObU7MeQspM,Mango,shopping,store,['clothing_store'],,3.6,126.0,"Bd Ferdinand de Lesseps, 76000 Rouen, France",49.4466003,1.0657906,u0bc23,u0bc2,2.6 km,33 mins
ChIJk-n6EUjn4EcRKg-dfL2tnac,Bostel François,accommodation,lodging,,,5.0,1.0,"200 Rue du 8 Mai 1945 124, 76380 Canteleu, France",49.4508619,1.03828,u0b9rd,u0b9r,5.1 km,1 hour 12 mins
ChIJbWeYTMjd4EcRryDNdvnKRSQ,The Novick's Stadium Rouen,night_life,bar,,,4.3,1462.0,"Hangar B Espace Des, Tour du Marégraphe, 76000 Rouen, France",49.4418692,1.0781132,u0bc28,u0bc2,1.4 km,18 mins
ChIJ19wxg9Ld4EcRXJQIZ_KqR2Y,Les Dragons vous ramènent,night_life,bar,,,4.3,36.0,"2 Rue Edmond Flamand, 76100 Rouen, France",49.434671,1.1004241,u0bc1p,u0bc1,1.0 km,12 mins
ChIJ9UN5i9jd4EcRtmyIjMrRMMo,Hautot Chocolatier Pâtissier,food,restaurant,"['bakery', 'store']",,3.8,37.0,"33 Pl. de la Pucelle, 76000 Rouen, France",49.4424703,1.0885524,u0bc2b,u0bc2,0.6 km,7 mins
ChIJz1FNLCzc4EcRRvQ51SXbY0o,Le cunff Matthieu. Tapissier Decorateur,shopping,store,"['furniture_store', 'home_goods_store']",,5.0,2.0,"12 Rue de Bellevue, 76000 Rouen, France",49.4486338,1.1081633,u0bc31,u0bc3,1.7 km,23 mins
ChIJTxh_UX_e4EcR695fBG1Xqu4,Actimag,shopping,store,['electronics_store'],,4.2,122.0,"49 Bis Rue de la République, 76000 Rouen, France",49.440942,1.0976372,u0bc2b,u0bc2,0.3 km,4 mins
ChIJq6rWT9Td4EcRjFq79YWGc7U,O'Paradis,food,restaurant,,,3.7,174.0,"6 Rue Louis Ricard, 76000 Rouen, France",49.4444264,1.0995916,u0bc31,u0bc3,0.8 km,10 mins
ChIJC5ojnQDc4EcR68kj4RaAR58,Aux Blés d'Or,shopping,store,['bakery'],,3.8,86.0,"Rue Louis Pasteur, 76160 Darnétal, France",49.4412593,1.1474947,u0bc60,u0bc6,4.3 km,55 mins
ChIJu9Urw1rn4EcRHU66pr0rgN8,Aux portes de Rouen,accommodation,lodging,,,4.6,15.0,"53 Rue Gaston Boulet, 76380 Canteleu, France",49.4540078,1.0488589,u0b9rf,u0b9r,4.0 km,51 mins
ChIJKX4m09fd4EcR3-hx6YjiOKc,Jacqueline RIU,shopping,store,['clothing_store'],,3.9,15.0,"41/42 Rue des Carmes, 76000 Rouen, France",49.4417512,1.0946746,u0bc2b,u0bc2,0.3 km,4 mins
ChIJw54RN8Xd4EcRPeKsJ2dAsgI,Animalis Rouen,shopping,store,['pet_store'],,3.9,12.0,"Centre commercial Espace du Palais, 8 All. Eugène Delacroix, 76000 Rouen, France",49.4427202,1.0933836,u0bc2b,u0bc2,0.6 km,7 mins
ChIJjwUOQvXh4EcRk7meSVY6dio,Crêperie La Rozell,food,restaurant,,,4.5,121.0,"31 ALLEE DES ARCADES, 76120 Le Grand-Quevilly, France",49.4076772,1.0524233,u0b9pf,u0b9p,5.2 km,1 hour 8 mins
ChIJ93WmINnd4EcR886m2RAs-eg,Le Rêve de l'Escalier,shopping,store,['book_store'],,4.8,83.0,"14 Rue Cauchoise, 76000 Rouen, France",49.4438889,1.0880556,u0bc2b,u0bc2,0.7 km,9 mins
ChIJ57pDWtjd4EcRg4qqLJHDjsg,Le Guillaume restaurant brasserie pizzeria,food,restaurant,['meal_delivery'],,4.0,229.0,"22 Rue Guillaume le Conquérant, 76000 Rouen, France",49.4433351,1.0897272,u0bc2b,u0bc2,0.7 km,8 mins
ChIJKR2Lt3je4EcRrnj6S3CVVoU,Norane,shopping,store,['jewelry_store'],,5.0,1.0,"20 Rue Saint-Romain, 76000 Rouen, France",49.4402312,1.0966713,u0bc2b,u0bc2,0.3 km,4 mins
ChIJoTSh83Le4EcRg94WPFs3sf4,Le Bistro de l'Amiral,food,cafe,['restaurant'],,4.3,79.0,"30 Rue de l'Amiral Cecille, 76100 Rouen, France",49.4328701,1.0826321,u0bc0w,u0bc0,1.5 km,20 mins
ChIJg0jhD9jd4EcRaTlssQ71EpY,BELLA PIZZA,food,restaurant,,,4.6,193.0,"8 Rue du Tambour, 76000 Rouen, France",49.4421099,1.0911109,u0bc2b,u0bc2,0.5 km,6 mins
ChIJtxr3KBTc4EcRB8fSMZ4Xtw0,Le Rallye,food,restaurant,,,4.3,30.0,"155 Rue Albert Dupuis, 76000 Rouen, France",49.4566592,1.1290908,u0bc3e,u0bc3,3.6 km,53 mins
ChIJr5i7XHje4EcRYDz2_4iP_Pw,Hôtel Cardinal,accommodation,lodging,,,4.4,29.0,"1 Pl. de la Cathédrale, 76000 Rouen, France",49.4399019,1.0937639,u0bc2b,u0bc2,0.1 km,1 min
ChIJwx245NLd4EcRql3B-zjJgi4,Maison de Retraite Sacré Coeur d'Ernemont,cultural,church,['place_of_worship'],,5.0,1.0,"7 Rue d'Ernemont, 76000 Rouen, France",49.4489264,1.1007436,u0bc31,u0bc3,1.2 km,17 mins
ChIJGxorA9bd4EcRX16C_SHsD4Y,BestHomeRouen,accommodation,lodging,,,1.0,1.0,"Haute-Normandie, 9 Rue Saint-Amand, 76000 Rouen, France",49.4415861,1.0967192,u0bc2b,u0bc2,0.4 km,5 mins
ChIJ43kDnHXe4EcR2OKc1hsKtlU,Le Carre Vert,night_life,bar,['restaurant'],,3.7,7.0,"67 Quai du Havre, 76000 Rouen, France",49.4406292,1.0837613,u0bc28,u0bc2,1.0 km,12 mins
ChIJP7bkmsnf4EcRrwt5tWFUmzU,Chantegrill,food,restaurant,,,3.8,498.0,"40 Av. des Canadiens, 76120 Le Grand-Quevilly, France",49.4006674,1.0638375,u0bc01,u0bc0,5.1 km,1 hour 6 mins
ChIJXTjLp97d4EcR_hTn6UoHDIw,COCCINELLE EXPRESS,shopping,store,['convenience_store'],,4.3,18.0,"9 Rue Saint-Gervais, 76000 Rouen, France",49.4464943,1.0856303,u0bc29,u0bc2,1.1 km,15 mins
ChIJ_0vIEfzd4EcRX-5Tevkdj74,Alice Délice,shopping,store,"['furniture_store', 'home_goods_store']",,4.2,217.0,"Centre Commercial Docks, 76 Bd Ferdinand de Lesseps, 76000 Rouen, France",49.4459973,1.0650634,u0bc21,u0bc2,2.6 km,32 mins
ChIJV-55BG7e4EcRRNjmXItYXs8,Eurodif Rouen Saint-Sever,shopping,store,['home_goods_store'],,3.0,3.0,"160 Rue Saint-Sever, 76100 Rouen, France",49.4310309,1.0861718,u0bc0w,u0bc0,1.3 km,16 mins
ChIJIZlwwGjd4EcRcsJMTYSscA0,La p'tite Pause,food,cafe,"['restaurant', 'bakery', 'store']",,3.0,22.0,"13 Rue Verte, 76000 Rouen, France",49.4457267,1.0925808,u0bc2c,u0bc2,0.9 km,11 mins
ChIJt6XWdjrc4EcRihfNeDAeq3U,Banette,shopping,store,['bakery'],,3.9,27.0,"10 Rue de la République, 76420 Bihorel, France",49.4546676,1.1150353,u0bc36,u0bc3,2.6 km,39 mins
ChIJ-3N6WUTc4EcRUi_GrBpMQj0,Martellucci Bruno,food,restaurant,,,4.8,8.0,"3121 Rte de Neufchâtel, 76230 Bois-Guillaume, France",49.4688372,1.1187485,u0bc3m,u0bc3,3.8 km,54 mins
ChIJxxmN1uPd4EcRf9DrOGZiUlg,Mauboussin Galeries Lafayette Rouen,shopping,store,"['jewelry_store', 'clothing_store']",,4.0,12.0,"25 Rue Grand Pont, 76000 Rouen, France",49.4394439,1.0919576,u0bc2b,u0bc2,0.3 km,3 mins
ChIJI5AraLLd4EcRxG6tSjSI65Q,Brasserie du Drugstore,night_life,bar,"['restaurant', 'meal_takeaway']",,4.4,88.0,"44 Rue de l'Hôpital, 76000 Rouen, France",49.4430726,1.0957451,u0bc2b,u0bc2,0.4 km,6 mins
ChIJl8-_CnDd4EcREuL2z7fS8EE,Entre deux chaises,shopping,store,"['furniture_store', 'home_goods_store']",,5.0,1.0,"69 Rue Verte, 76000 Rouen, France",49.4521939,1.0931323,u0bc2f,u0bc2,1.7 km,23 mins
ChIJlyS-p27e4EcRKSgPm6QaBCs,Calzedonia,shopping,store,['clothing_store'],,4.2,24.0,"CC ST SEVER, Rue Henri Gadeau de Kerville, 76100 Rouen, France",49.4308356,1.0846159,u0bc0w,u0bc0,1.4 km,17 mins
ChIJn2-F43Pe4EcRIRLQsAAln7Y,CROC'PIZZA,food,restaurant,"['meal_delivery', 'meal_takeaway']",,3.8,97.0,"8 Bd d'Orléans, 76100 Rouen, France",49.4356035,1.0857061,u0bc0x,u0bc0,1.1 km,15 mins
ChIJcY40fgXc4EcRT0nQyaz9fqU,Cartouche Encre Biz,shopping,store,['electronics_store'],,3.6,16.0,"9 Rue Georges Braque, 76000 Rouen, France",49.4510072,1.1401676,u0bc3f,u0bc3,4.7 km,1 hour 5 mins
ChIJKxdwG93f4EcRhsR3_JX2bLk,La Marque exotique,food,restaurant,['meal_takeaway'],,4.9,13.0,"12 Rue Galilée, 76000 Rouen, France",49.4551651,1.1389911,u0bc3g,u0bc3,5.1 km,1 hour 10 mins
ChIJ4cXvlXXf4EcRvw8DtRRMXBw,French & Fried,food,restaurant,,,4.4,59.0,"71 Av. des Canadiens, 76300 Sotteville-lès-Rouen, France",49.411316,1.0723159,u0bc07,u0bc0,3.7 km,48 mins
ChIJZfSDI0Pd4EcRIEqnYj2dNP4,L'Église-Brasserie,night_life,bar,,,4.9,46.0,"12 Rue Saint-Nicaise, 76000 Rouen, France",49.4441258,1.1037176,u0bc31,u0bc3,1.1 km,14 mins
ChIJsTOUTvnd4EcR1GBMB6W-4mA,La Maison Blanche,shopping,store,['liquor_store'],,1.0,1.0,"76000 Rouen, France",49.4471759,1.0631753,u0bc21,u0bc2,2.8 km,35 mins
ChIJ2fhtrxnf4EcRQhTLhV45ZyU,Le Jardin des Saveurs,nature,park,,,5.0,1.0,"Rue des Murs Saint-Yon, 76100 Rouen, France",49.4285489,1.077883,u0bc0w,u0bc0,2.1 km,27 mins
ChIJR3c2ahze4EcRhdQY66dHnpY,Parc Raoul Dufy,nature,park,,,3.5,2.0,"Rue Raoul Dufy, 76140 Le Petit-Quevilly, France",49.4280025,1.0621803,u0bc0n,u0bc0,3.1 km,40 mins
ChIJ0_e_stfd4EcRgp3WRtX0fig,LE BAR'OUF,night_life,bar,,2.0,3.9,442.0,"11 Bis Rue Fontenelle, 76000 Rouen, France",49.4415161,1.0845839,u0bc28,u0bc2,0.9 km,11 mins
ChIJsemqpJTf4EcR7quXoBwqop0,Immeuble des Provinces perdues,cultural,tourist_attraction,,,3.0,1.0,"carrefour entre la Rue Alsace Lorraine et la, Rue Malpalu, 76000 Rouen, France",49.4392235,1.0973135,u0bc2b,u0bc2,0.2 km,3 mins
ChIJs4yWwNjd4EcRlsBH14q2bcI,Euro Café,night_life,night_club,"['bar', 'cafe', 'restaurant', 'store']",,3.9,497.0,"41 Pl. du Vieux Marché, 76000 Rouen, France",49.4428153,1.0873977,u0bc28,u0bc2,0.7 km,8 mins
ChIJ7_X-OXje4EcRnCbkK20f2BI,Printemps Rouen,shopping,store,"['department_store', 'jewelry_store', 'clothing_store']",,3.9,1841.0,"4-14 Rue du Gros Horloge, 76000 Rouen, France",49.4408436,1.0938026,u0bc2b,u0bc2,0.2 km,2 mins
ChIJN2MQkuDd4EcRaAi-ejYuXIA,Auto Moto Ecole,shopping,store,['electronics_store'],,5.0,1.0,"76000 Rouen, France",49.4448011,1.0796986,u0bc29,u0bc2,1.4 km,18 mins
ChIJq6pGh9jd4EcRnCPjxmhjOA8,Prélude café,food,cafe,['store'],,4.7,368.0,"2 Pl. de la Pucelle, 76000 Rouen, France",49.4417417,1.089074,u0bc2b,u0bc2,0.5 km,7 mins
ChIJBQJ2uXHe4EcRfn9QHBcg6oQ,La Grignoterie,food,restaurant,"['bakery', 'store']",,3.9,94.0,"Rue Henri Gadeau de Kerville, 76100 Rouen, France",49.430343,1.084012,u0bc0w,u0bc0,1.4 km,18 mins
ChIJAaprKhPf4EcRJizpvUD9IKM,Lauryl's,food,restaurant,,,4.9,59.0,"25 Rue des Bonnetiers, 76000 Rouen, France",49.4396209,1.0961303,u0bc2b,u0bc2,0.1 km,1 min
ChIJDdw4iNXd4EcRyXPX1vffTGM,Le robec,shopping,store,['book_store'],,4.9,38.0,"247 Rue Eau de Robec, 76000 Rouen, France",49.4414586,1.0993817,u0bc30,u0bc3,0.5 km,7 mins
ChIJfV-WpObd4EcR94r9B0WDIrM,Vital Romet pianos,shopping,store,"['electronics_store', 'home_goods_store']",,4.7,15.0,"4 Rue François Lamy, 76000 Rouen, France",49.4476422,1.0760956,u0bc23,u0bc2,1.9 km,24 mins
ChIJ353ygdfd4EcRCnprYtDmpHE,SUN Sushi,food,restaurant,,2.0,4.5,196.0,"100 Rue Ganterie, 76000 Rouen, France",49.443964,1.092322,u0bc2b,u0bc2,0.7 km,9 mins
ChIJP0bds5ff4EcRKf6nz1RLAkM,Séoul,food,restaurant,,,4.4,215.0,"52 Rue d'Amiens, 76000 Rouen, France",49.441296,1.099504,u0bc30,u0bc3,0.5 km,6 mins
ChIJ4-qwhpPd4EcRLtjnNL8Z8yM,Centre Sportif des Coquets,sport,gym,['health'],,4.1,84.0,"Rue du Dr Fleury, 76130 Mont-Saint-Aignan, France",49.4649887,1.0755373,u0bc2k,u0bc2,3.5 km,51 mins
ChIJV1ptvnLe4EcR7Ynpf2cYe4M,l'exotika,sport,spa,['health'],,3.8,21.0,"4 Rue du Four, 76100 Rouen, France",49.432457,1.081567,u0bc0w,u0bc0,1.6 km,21 mins
ChIJfTcGaSrc4EcRVZUpAeTUvR8,O PATES,food,restaurant,,,5.0,2.0,"144 Rue Saint-Hilaire, 76000 Rouen, France",49.4424197,1.1067268,u0bc30,u0bc3,1.1 km,14 mins
ChIJPZu9udbd4EcRDOtVac1Y7_A,Le-Dix-Huit,accommodation,lodging,,,5.0,5.0,"18 Rue du Cordier, 76000 Rouen, France",49.4458545,1.0964815,u0bc2c,u0bc2,0.8 km,11 mins
ChIJx6Z3aSrc4EcRRHHDoYpwDnk,PIZZA GOURMET®,food,restaurant,"['meal_delivery', 'meal_takeaway']",,4.2,66.0,"144 Rue Saint-Hilaire, 76000 Rouen, France",49.4424222,1.1068117,u0bc30,u0bc3,1.1 km,14 mins
ChIJg3ouBXre4EcRW9BcPfpXmEI,Prairie Saint Sever,nature,park,,,4.2,331.0,"Quai Saint-Sever, 76100 Rouen, France",49.4358979,1.0921325,u0bc0z,u0bc0,0.7 km,9 mins
ChIJcYXQS4ng4EcRn4OOjEgLcvY,Ying et Yang,food,restaurant,,,4.0,2.0,"Av. Franklin Roosevelt, 76120 Le Grand-Quevilly, France",49.406057,1.0414991,u0b9pd,u0b9p,5.9 km,1 hour 16 mins
ChIJm7qQItnd4EcR45Zru9Ua31I,La Bekaa,food,restaurant,,1.0,4.6,299.0,"60 Rue de Fontenelle, 76000 Rouen, France",49.4445165,1.0877271,u0bc2c,u0bc2,0.8 km,11 mins
ChIJr4CysGDc4EcRHUkUYaRb0qw,Enfin Chez Gaëlle,food,restaurant,,,4.3,130.0,"4244 Rte de Neufchâtel, 76230 Bois-Guillaume, France",49.4771337,1.127767,u0bc3x,u0bc3,4.9 km,1 hour 9 mins
ChIJeWzoOVbh4EcRylkK-us_Xgg,Steak n' shake,food,restaurant,,,3.9,327.0,"11 Rue Paul Vaillant Couturier, 76120 Le Grand-Quevilly, France",49.4197761,1.0441357,u0b9pu,u0b9p,4.9 km,1 hour 4 mins
ChIJlY6lnHje4EcRSyKevb1VqNo,Appart Rouen Centre,accommodation,lodging,,,4.3,3.0,"74 Rue des Bons Enfants, 76000 Rouen, France",49.4446679,1.0889166,u0bc2c,u0bc2,0.9 km,11 mins
ChIJDcgNFtLd4EcRabyfz_5FZZM,Café Marie Blachère,food,cafe,,,2.2,16.0,"Pl. Bernard Tissot, 76000 Rouen, France",49.4484296,1.0933994,u0bc2c,u0bc2,1.2 km,17 mins
ChIJL0q3MeHd4EcRMweaepS7Fx4,Le Comptoir Seigneurie Gauthier,shopping,store,['home_goods_store'],,4.4,66.0,"ZA des deux Rivières, Rte de Lyons la Forêt, 76000 Rouen, France",49.4362586,1.1282698,u0bc1x,u0bc1,2.7 km,33 mins
ChIJwetjavzd4EcRdFZQVIy5H1I,Esprit,shopping,store,['clothing_store'],,4.1,110.0,"Centre Commercial Docks, 76 Bd Ferdinand de Lesseps, 76000 Rouen, France",49.4455963,1.0657059,u0bc23,u0bc2,2.4 km,30 mins
ChIJB3F2pHne4EcRsTV_WUxOCiY,La Pêcherie,food,restaurant,,2.0,4.6,533.0,"29 Pl. de la Basse Vieille Tour, 76000 Rouen, France",49.43787,1.0944428,u0bc0z,u0bc0,0.3 km,3 mins
ChIJi6aNSuHd4EcRdaIEap3eV3E,Club 140,night_life,night_club,,,5.0,1.0,"52 Rue de Constantine, 76000 Rouen, France",49.4465464,1.0766017,u0bc23,u0bc2,1.7 km,22 mins
ChIJdV47cUTn4EcRcnLr966xNU0,E.Leclerc Espace Culturel,shopping,store,"['book_store', 'electronics_store', 'home_goods_store']",,3.8,49.0,"40 Rue du Canal, 76380 Canteleu, France",49.4574889,1.044712,u0b9rg,u0b9r,4.7 km,1 hour 0 mins
ChIJg0990tjd4EcRBLxHt_H-rIE,L'Antre Du Malt - Cave à bières,shopping,store,"['electronics_store', 'home_goods_store', 'liquor_store']",,4.9,267.0,"48 Rue de Fontenelle, 76000 Rouen, France",49.4434342,1.0865122,u0bc28,u0bc2,0.8 km,10 mins
ChIJ6R7PhNfd4EcR-0sJ4_82ZQA,Okxo La Suite,shopping,store,"['furniture_store', 'home_goods_store']",,4.8,4.0,"25 Rue de la Poterne, 76000 Rouen, France",49.4435782,1.0926687,u0bc2b,u0bc2,0.6 km,8 mins
ChIJ6bXsVW3h4EcRYJYf3zJuogM,Marie Blachère Boulangerie Sandwicherie Tarterie,food,restaurant,"['bakery', 'meal_takeaway', 'store']",,3.7,105.0,"Rue Paul Vaillant Couturier, 76120 Le Grand-Quevilly, France",49.420519,1.0461584,u0b9pu,u0b9p,4.6 km,1 hour 1 min
ChIJuzMW_t7d4EcRAia5rtjOP94,Allo la Guepe,shopping,store,['home_goods_store'],,4.8,101.0,"6 Rue Stanislas Girardin, 76000 Rouen, France",49.4455902,1.0849321,u0bc29,u0bc2,1.1 km,15 mins
ChIJpeMq1UHe4EcRI8WOgGvZQlo,Normel,shopping,store,['electronics_store'],,4.8,6.0,"15 Rue Georges Cuvier, 76100 Rouen, France",49.4202809,1.0819959,u0bc0s,u0bc0,2.7 km,35 mins
ChIJCW9zR3ne4EcRybP6c1KXIco,SUSHI ROUEN,food,restaurant,,2.0,4.0,913.0,"2 Pl. de la République, 76000 Rouen, France",49.4373128,1.0967439,u0bc0z,u0bc0,0.4 km,5 mins
ChIJzwvg_9fd4EcR2BuKHBDhhrA,À Juste Titre,shopping,store,['book_store'],,4.4,17.0,"5 Rue Thouret, 76000 Rouen, France",49.4415676,1.0919273,u0bc2b,u0bc2,0.3 km,4 mins
ChIJayEy89Df4EcRnahIByL4MbE,Japan & Geek,shopping,store,['book_store'],,4.9,71.0,"20 Rue du Général Leclerc, 76000 Rouen, France",49.4393066,1.0961244,u0bc2b,u0bc2,0.1 km,2 mins
ChIJhRl-xlDf4EcR5nzchOhK1CM,Fury Bar,night_life,bar,,,4.7,78.0,"23 Pl. de la Basse Vieille Tour, 76000 Rouen, France",49.437801,1.0945819,u0bc0z,u0bc0,0.3 km,3 mins
ChIJyakyn9bd4EcR9hlzOQ6LnbY,Les mondes magiques,food,cafe,"['book_store', 'store']",,4.6,44.0,"98 Rue Beauvoisine, 76000 Rouen, France",49.4451218,1.0972644,u0bc2c,u0bc2,0.7 km,9 mins
ChIJ6y9_uPnd4EcR_2i46nD8Nts,Basilique du Sacré-Cœur,cultural,church,['place_of_worship'],,4.5,28.0,"Rue de Bourgogne, 76000 Rouen, France",49.4508943,1.0629257,u0bc24,u0bc2,2.9 km,37 mins
ChIJV4huR1meDEER_7o1pFQcyJs,Zeina,shopping,store,['clothing_store'],,1.0,1.0,"136 Rue Saint-Sever, 76100 Rouen, France",49.4316325,1.0867534,u0bc0w,u0bc0,1.2 km,15 mins
ChIJLy9EhHPe4EcRb7YdS54a6vA,Boulangerie Villey,shopping,store,['bakery'],,4.0,106.0,"70 Bd d'Orléans, 76100 Rouen, France",49.4361912,1.0839326,u0bc0x,u0bc0,1.3 km,16 mins
ChIJn1D2t4De4EcRfWWrdUvBZY0,Esplanade du Champ de Mars,nature,park,,,4.2,68.0,"Rue Roger-Bésus, 76100 Rouen, France",49.4368878,1.1041468,u0bc1p,u0bc1,0.9 km,11 mins
ChIJK7IGhm3e4EcRBPKQdcZePC0,Subway,food,restaurant,['meal_takeaway'],1.0,4.4,348.0,"168 Rue Saint-Sever, 76100 Rouen, France",49.4309621,1.0859332,u0bc0w,u0bc0,1.3 km,16 mins
ChIJy7s_8LLf4EcRetVRqgUbg7k,The Church of Jesus Christ of Latter-day Saints,cultural,church,['place_of_worship'],,4.5,11.0,"38 Rue Saint-Romain, 76000 Rouen, France",49.4404459,1.0962974,u0bc2b,u0bc2,0.3 km,4 mins
ChIJtdPlSNnd4EcR2dfGCHqcosc,Lilit gâteaux artistiques,shopping,store,['bakery'],,4.0,44.0,"87 Rue Jean Lecanuet, 76000 Rouen, France",49.4455367,1.0869569,u0bc29,u0bc2,1.0 km,13 mins
ChIJFzcov3fe4EcRf0PezsDmuNM,"Wheel-e.fr, réparation, location et vente hoverboard, gyroroue et nouvelle mobilité urbaine à Rouen",shopping,store,['bicycle_store'],,4.5,25.0,"208 Rue Martainville, 76000 Rouen, France",49.4399189,1.0991323,u0bc30,u0bc3,0.4 km,4 mins
ChIJeb66ZXXe4EcRMjJpkXZu3r8,Le Comptoir des Pirates,night_life,bar,['restaurant'],,4.6,48.0,"80 Quai du Havre, 76000 Rouen, France",49.4410087,1.0828913,u0bc28,u0bc2,1.1 km,13 mins
ChIJrwVS5Wfe4EcRB6eK3_DyiKU,Delice Land,food,restaurant,,,4.0,69.0,"58 Rue Pierre Corneille, 76300 Sotteville-lès-Rouen, France",49.4217238,1.091739,u0bc0u,u0bc0,2.4 km,31 mins
ChIJQUMZZXHe4EcRarmuUkAhLdw,Les 2 Frères,food,restaurant,,,4.8,42.0,"9 Av. de Bretagne, 76100 Rouen, France",49.4345487,1.0864088,u0bc0x,u0bc0,1.1 km,14 mins
ChIJL8K0Ntbd4EcRwB5lbspT4ck,Le Bistrot des Carmes,night_life,bar,['restaurant'],,4.1,207.0,"37 Pl. des Carmes, 76000 Rouen, France",49.4422739,1.0952767,u0bc2b,u0bc2,0.4 km,5 mins
ChIJox8rgqXd4EcRb0b-NjCqq08,Globe-trotters restaurant,food,restaurant,,,3.8,207.0,"33 Sq. Raymond Aron, 76130 Mont-Saint-Aignan, France",49.4748546,1.0935152,u0bc2y,u0bc2,4.6 km,1 hour 6 mins
ChIJMWd6Xdbd4EcRm7Tb_eL4hp0,Size Factory Rouen - Magasin de Vêtements Grande Taille Homme,shopping,store,"['shoe_store', 'clothing_store']",,4.6,113.0,"18 Rue Beauvoisine, 76000 Rouen, France",49.4434658,1.095987,u0bc2b,u0bc2,0.5 km,6 mins
ChIJUTwFc9jd4EcRJJnGqrWgJec,McDonald's,food,restaurant,['meal_takeaway'],1.0,3.6,2352.0,"139 Rue du Gros Horloge, 76000 Rouen, France",49.4419381,1.0900438,u0bc2b,u0bc2,0.5 km,6 mins
ChIJHeC_N-rd4EcRC3kYGW8n4MQ,Fisolofi,shopping,store,"['electronics_store', 'home_goods_store']",,5.0,2.0,"8 Rue du Cordier, 76000 Rouen, France",49.4455765,1.0969137,u0bc2c,u0bc2,0.8 km,10 mins
ChIJAdQm7yfc4EcRFEW4Va3DvQQ,Boulangerie E. Lenègre,shopping,store,['bakery'],,4.5,67.0,"240 Rte de Darnétal, 76000 Rouen, France",49.4421217,1.1150409,u0bc32,u0bc3,1.8 km,24 mins
ChIJDfgVZdjd4EcRizXY0wQ0WD8,Claire's,shopping,store,['jewelry_store'],,4.2,25.0,"159 Rue du Gros Horloge, 76000 Rouen, France",49.4420879,1.0895919,u0bc2b,u0bc2,0.5 km,6 mins
ChIJ-ewaM_fd4EcRgEPsCkSZ8MQ,La Pizzeta Bois guillaume,food,restaurant,,,4.7,138.0,"Av. de l'Europe, 76230 Bois-Guillaume, France",49.475073,1.1088874,u0bc3n,u0bc3,4.7 km,1 hour 6 mins
ChIJg7Zh9ijc4EcRvZtoO5GBO2Y,Caves Pierre Noble,shopping,store,['liquor_store'],,4.7,92.0,"21 Bd de Verdun, 76000 Rouen, France",49.4438908,1.1123665,u0bc32,u0bc3,1.7 km,23 mins
ChIJWfClXN_d4EcRQZKpZoRaP5k,Charlet Dominique,shopping,store,['jewelry_store'],,4.4,5.0,"17 Rue de Fontenelle, 76000 Rouen, France",49.4421566,1.0851522,u0bc28,u0bc2,0.8 km,10 mins
ChIJiSXFyNjd4EcRNkGzPvOHOtU,Cancan,food,restaurant,,3.0,4.1,718.0,"43 Pl. du Vieux Marché, 76000 Rouen, France",49.4429932,1.0871468,u0bc28,u0bc2,0.7 km,9 mins
ChIJi5WwDz7d4EcR0DV_aMydnM4,Boulangerie,shopping,store,['bakery'],,4.0,1.0,"76000 Rouen, France",49.4566079,1.1393008,u0bc3g,u0bc3,5.3 km,1 hour 12 mins
ChIJSS9KQHje4EcRG52xW4RMsXM,Boutique Nespresso Rouen,food,cafe,['store'],,4.2,277.0,"9 Pl. de la Cathédrale, 76000 Rouen, France",49.439951,1.093394,u0bc2b,u0bc2,0.1 km,2 mins
ChIJDy4m4Nfd4EcRF8DLcI_cxWE,Natalys,shopping,store,"['furniture_store', 'home_goods_store', 'clothing_store']",,4.3,30.0,"21-23 Rue du Bec, 76000 Rouen, France",49.4415004,1.0930337,u0bc2b,u0bc2,0.3 km,4 mins
ChIJdUcSMmDd4EcRVF_x1sRJGTc,Power Food,food,restaurant,['meal_takeaway'],,4.9,34.0,"83 Rue Ecuyere, 76000 Rouen, France",49.443786,1.0906383,u0bc2b,u0bc2,0.7 km,9 mins
ChIJkS_mE1PZ4EcRqZ38Rc_6m18,Médiathèque Jean-René Rouzé,shopping,library,,,4.8,8.0,"2 Rue Sainte-Marguerite, 76160 Saint-Léger-du-Bourg-Denis, France",49.4332987,1.1503194,u0bc4p,u0bc4,4.3 km,56 mins
ChIJnfyJR9bd4EcRSkO0TeF1VyQ,Bouygues Telecom,shopping,store,,,3.4,10.0,"Rue Saint-Sever, 76100 Rouen, France",49.430962,1.0837891,u0bc0w,u0bc0,1.5 km,19 mins
ChIJP5r-9Ivn4EcRtPzJ3iw8OGM,Chapelle Saint Simeon,cultural,church,['place_of_worship'],,5.0,1.0,"10 Rue Dr Emile Bataille, 76250 Déville-lès-Rouen, France",49.4613997,1.0510863,u0b9ru,u0b9r,4.5 km,56 mins
ChIJaYEPXtbd4EcRUH6KMr1NtDM,SEPHORA ROUEN CARMES,shopping,store,['clothing_store'],,3.7,620.0,"26 Rue des Carmes, 76000 Rouen, France",49.441371,1.094532,u0bc2b,u0bc2,0.2 km,3 mins
ChIJd-ERUNXd4EcRa3K7Y3uSZyg,Fitch Bike,shopping,store,['bicycle_store'],,4.6,32.0,"19 Av. Gallieni, 76130 Mont-Saint-Aignan, France",49.4546547,1.0854298,u0bc2d,u0bc2,2.2 km,31 mins
ChIJdccaHW7e4EcRGUhMSsr7bwc,McDonald's,food,restaurant,['meal_takeaway'],1.0,3.5,1133.0,"150 Rue Saint-Sever, 76100 Rouen, France",49.431264,1.0864234,u0bc0w,u0bc0,1.2 km,16 mins
ChIJHyntAMrf4EcROVqr76jieDk,BONSECOURS TAEKWONDO ACADEMY,sport,gym,['health'],,5.0,3.0,"Rue du Bois Bagnères, 76240 Bonsecours, France",49.4254882,1.1281176,u0bc1t,u0bc1,3.3 km,50 mins
ChIJRSzy5fzd4EcRspPl_VMW6MI,Camaïeu,shopping,store,"['shoe_store', 'clothing_store']",,3.8,158.0,"Centre Commercial Les Docks 76, Bd Ferdinand de Lesseps, 76000 Rouen, France",49.4465958,1.0651429,u0bc21,u0bc2,2.6 km,33 mins
ChIJa4T1zNnd4EcRkfsHAEzojuY,Le Nash,night_life,bar,,,4.0,143.0,"97 Rue Ecuyere, 76000 Rouen, France",49.4440504,1.0908315,u0bc2c,u0bc2,0.7 km,9 mins
ChIJs-JbmGDd4EcR0nyITw3drLM,Chez PP Jean,food,restaurant,,,4.3,3.0,"93 Rue Beauvoisine, 76000 Rouen, France",49.4453599,1.0970822,u0bc2c,u0bc2,0.7 km,10 mins
ChIJF6eODNbd4EcRMRA6p-NxllU,Kali yog (terre de sienne Rouen),shopping,store,['clothing_store'],,2.7,3.0,"19 Rue de l'Hôpital, 76000 Rouen, France",49.4425474,1.0970334,u0bc2b,u0bc2,0.5 km,7 mins
ChIJHQOPXW3e4EcRYFfYiW-8_5M,Gymnases Municipaux,sport,gym,['health'],,3.0,2.0,"Pl. des Cotonniers, 76000 Rouen, France",49.4308868,1.0816116,u0bc0w,u0bc0,1.6 km,21 mins
ChIJXZ6r1Hne4EcRbhx6Gh1PGq4,Eco lodge Rouen,accommodation,lodging,,,3.4,9.0,"6 Rue Saint-Etienne des Tonneliers, 76000 Rouen, France",49.4389149,1.0920248,u0bc2b,u0bc2,0.3 km,4 mins
ChIJux7NKnje4EcRut3kVq0Dfdg,Le Dooliz,night_life,bar,['restaurant'],,3.9,25.0,"10 Rue Saint-Etienne des Tonneliers, 76000 Rouen, France",49.4389388,1.0918533,u0bc2b,u0bc2,0.3 km,4 mins
ChIJ2-368dDd4EcRkdbEtdwKJkY,Café Victor - Brasserie Hôtel de Dieppe 1880,food,cafe,['restaurant'],,4.4,68.0,"5 Pl. Bernard Tissot, 76000 Rouen, France",49.448324,1.0936229,u0bc2c,u0bc2,1.2 km,17 mins
ChIJBU5O5tjd4EcRh-uNRzog-v8,Café de Rouen,night_life,bar,"['cafe', 'restaurant']",2.0,3.7,307.0,"61 Pl. du Vieux Marché, 76000 Rouen, France",49.4435195,1.0879168,u0bc2b,u0bc2,0.7 km,9 mins
ChIJE3xNZNjd4EcRLw6OzFXN6ao,Bijouterie JALADIS MAILLARD ROUEN,shopping,store,['jewelry_store'],,4.2,18.0,"136 Rue du Gros Horloge, 76000 Rouen, France",49.4423174,1.0895806,u0bc2b,u0bc2,0.5 km,6 mins
ChIJ4WJln53n4EcRtzVGk4GmReU,Librairie Universitaire Colbert,shopping,store,['book_store'],,3.9,148.0,"1 Pl. Colbert, 76130 Mont-Saint-Aignan, France",49.4618248,1.0707014,u0bc2k,u0bc2,3.5 km,50 mins
ChIJV4jfR9bd4EcREiGwmxnjM8E,Sergent Major,shopping,store,"['shoe_store', 'clothing_store']",,4.2,25.0,"102 Rue des Carmes, 76000 Rouen, France",49.4428768,1.0954995,u0bc2b,u0bc2,0.4 km,5 mins
ChIJc4IxwTje4EcRV7eWKe0XOpw,Crugnola Serge,shopping,store,['bakery'],,4.5,49.0,"20 Rue Jean-Baptiste Gilbert, 76300 Sotteville-lès-Rouen, France",49.4151633,1.0781435,u0bc0e,u0bc0,3.2 km,41 mins
ChIJ-ZXz3fvf4EcRcTdqhdxzOz4,Jardin Familiaux Bonsecours,nature,park,,,4.4,14.0,"4 Rue Jean de la Varende, 76240 Bonsecours, France",49.4290223,1.1367614,u0bc1y,u0bc1,3.9 km,55 mins
ChIJPWwSjtXd4EcRtsb68MH7YLs,Le Berbère,food,restaurant,,4.0,4.4,438.0,"15 Rue des Boucheries Saint-Ouen, 76000 Rouen, France",49.441862,1.099039,u0bc30,u0bc3,0.5 km,7 mins
ChIJE3Ily2je4EcRywtW3wql5Pg,Association Maison des Loisirs Dévé,sport,gym,['health'],,5.0,4.0,"45 Bd de l'Europe, 76100 Rouen, France",49.4261964,1.0897434,u0bc0v,u0bc0,2.0 km,26 mins
ChIJjWs-4wXf4EcRp1aihFLN_GU,Polychrome,shopping,store,"['furniture_store', 'home_goods_store']",,5.0,5.0,"140 Rue Martainville, 76000 Rouen, France",49.4396261,1.1003121,u0bc30,u0bc3,0.5 km,6 mins
ChIJBzkxnfDd4EcRrsODjL40VO0,Mon P'tit Hanoi,food,restaurant,,,4.6,57.0,"30 - 32 Rue des Fossés Louis VIII, 76000 Rouen, France",49.4429996,1.0947978,u0bc2b,u0bc2,0.5 km,6 mins
ChIJT1QDDdPd4EcRtci5yj7-lvo,BIFROST CLUB/LIVE,night_life,night_club,,,3.4,150.0,"105 Bd de l'Yser, 76000 Rouen, France",49.4478499,1.1009887,u0bc31,u0bc3,1.2 km,17 mins
ChIJf_i3_G3e4EcROGsGoK7sppA,Palais de la Bière,food,restaurant,,,3.8,534.0,"178 Rue Saint-Sever, 76100 Rouen, France",49.4308123,1.0855398,u0bc0w,u0bc0,1.3 km,17 mins
ChIJk9nVXUfh4EcRevFGCbkqWaQ,Restaurant steak frite (ambiance rétro),food,restaurant,,,3.0,2.0,"10 Rue Paul Vaillant Couturier, 76120 Le Grand-Quevilly, France",49.4203388,1.0479481,u0b9pu,u0b9p,4.5 km,59 mins
ChIJKXWj7CHe4EcRRnd4j1SCQnY,Pizza Max Petit-Quevilly,food,restaurant,,,3.9,77.0,"43 Bd Charles de Gaulle, 76140 Le Petit-Quevilly, France",49.4201983,1.0621178,u0bc0h,u0bc0,3.4 km,45 mins
ChIJA-xJoLvd4EcRV9WMnAWDAqY,ArnaudM,sport,gym,['health'],,5.0,2.0,"79 Rue Jeanne d'Arc, 76000 Rouen, France",49.4456424,1.0924504,u0bc2c,u0bc2,0.9 km,11 mins
ChIJU-AigFzd4EcRihfaE_4BbCU,Burger Squad,food,restaurant,,,5.0,22.0,"81 Rue Cauchoise, 76000 Rouen, France",49.4449731,1.0868654,u0bc29,u0bc2,0.9 km,11 mins
ChIJKQRQUHje4EcRBGGJ93OpwBc,Suite 61,shopping,store,['clothing_store'],,4.3,56.0,"61 Rue du Général Leclerc, 76000 Rouen, France",49.4393522,1.0938089,u0bc2b,u0bc2,0.1 km,1 min
ChIJKaym4fzd4EcRPLLp_ie0-wE,Papa Tom,night_life,bar,['restaurant'],2.0,4.0,476.0,"Hangar, 10 Quai Ferdinand de Lesseps, 76000 Rouen, France",49.4444472,1.0680557,u0bc23,u0bc2,2.2 km,27 mins
ChIJ0bz_5tXd4EcRG7f0b_OjZsA,Magne Michel,shopping,store,['home_goods_store'],,3.0,2.0,"249 Rue Eau de Robec, 76000 Rouen, France",49.4414375,1.0992369,u0bc30,u0bc3,0.5 km,6 mins
ChIJd2p3Ahze4EcRASFSITqvftk,Au Bon Accueil,food,restaurant,,2.0,4.2,485.0,"125 Av. Jean Jaurès, 76140 Le Petit-Quevilly, France",49.4265163,1.0629481,u0bc0j,u0bc0,3.1 km,40 mins
ChIJEZCRFKbg4EcRB2GfWFWTmdk,Artisan Boulanger Pâtissier Baguepi,shopping,store,['bakery'],,3.8,19.0,"31 Rue Jacquard, 76140 Le Petit-Quevilly, France",49.4304898,1.0534745,u0b9py,u0b9p,3.8 km,49 mins
ChIJO4sEQwHd4EcR49wAq36-0JI,SOLEIL D'AFRIQUE,night_life,bar,"['restaurant', 'liquor_store', 'store']",,4.6,61.0,"143 Rue Beauvoisine, 76000 Rouen, France",49.4465466,1.0980166,u0bc2c,u0bc2,0.9 km,11 mins
ChIJExXbkQ3d4EcRAhQ9fZD7FtU,Laure & Albane,shopping,store,['jewelry_store'],,3.7,3.0,"5 Rue Ganterie, 76000 Rouen, France",49.4430414,1.0952658,u0bc2b,u0bc2,0.4 km,6 mins
ChIJxdpfv0rf4EcRPlshKBWiXD0,Rue des Chanoines,cultural,tourist_attraction,,,3.0,1.0,"Rue des Chanoines, 76000 Rouen, France",49.440765,1.0967412,u0bc2b,u0bc2,0.4 km,5 mins
ChIJF6KuM7Ld4EcRLqgW1pV6aPI,Station Service,food,cafe,"['restaurant', 'hardware_store', 'store']",,4.3,149.0,"44 46 All. Eugène Delacroix, 76000 Rouen, France",49.444117,1.0938293,u0bc2c,u0bc2,0.7 km,9 mins
ChIJb_Qpknfe4EcRvzNZ0SFHpyA,Le Soleil Du Maghreb,food,restaurant,,,3.9,541.0,"92 Rue du Général Leclerc, 76000 Rouen, France",49.4398851,1.0909142,u0bc2b,u0bc2,0.3 km,4 mins
ChIJvTnv75_g4EcRuNziHWs4Qs0,Chapelle Saint-Julien,cultural,church,['place_of_worship'],,4.1,48.0,"Rue Danton, 76140 Le Petit-Quevilly, France",49.4208139,1.0579996,u0bc0h,u0bc0,3.8 km,50 mins
ChIJIxHpZkjd4EcRRD3-ZpkfMjk,Café Love,food,cafe,['restaurant'],,4.7,166.0,"3 Rue des Basnages, 76000 Rouen, France",49.4441358,1.0925158,u0bc2c,u0bc2,0.7 km,9 mins
ChIJxz5Ygj_d4EcRCQXZc9cY1KI,ExoWorld Épicerie africaine,shopping,store,['convenience_store'],,5.0,9.0,"72 Rue Cauchoise, 76000 Rouen, France",49.4449924,1.0871292,u0bc29,u0bc2,0.9 km,11 mins
ChIJWWY7ztfd4EcRLe9B_HqkH9Q,Saveurs Dantan,food,cafe,['store'],,4.4,85.0,"12 Rue Saint-Lô, 76000 Rouen, France",49.4421589,1.0943058,u0bc2b,u0bc2,0.3 km,4 mins
ChIJwVzfft_d4EcR1xxZGYO7iXs,SONOfrance,shopping,store,['electronics_store'],,4.7,91.0,"28 Bd des Belges, 76000 Rouen, France",49.4417828,1.0837609,u0bc28,u0bc2,1.0 km,13 mins
ChIJ59q0gdfd4EcRVmiRD03qwUQ,The English Shop,shopping,store,['home_goods_store'],,4.9,25.0,"103 Rue Ganterie, 76000 Rouen, France",49.4438887,1.0920712,u0bc2b,u0bc2,0.7 km,9 mins
ChIJ7X95bODd4EcRjn3rbimFQVg,Le P'tit Dalloz,night_life,bar,,1.0,4.6,92.0,"27 Rue Duguay Trouin, 76000 Rouen, France",49.4430342,1.0796991,u0bc28,u0bc2,1.3 km,16 mins
ChIJn9uGtzPf4EcRRRslu7Dy_oM,Grillades à la Braise,food,restaurant,,,4.9,20.0,"59 Av. Jean Jaurès, 76140 Le Petit-Quevilly, France",49.427302,1.0663362,u0bc0m,u0bc0,2.8 km,37 mins
ChIJVytHHRHe4EcRAQv7XAPRTik,Le P'tit Bistrot,food,restaurant,,,4.9,12.0,"97 Rue Louis Poterat, 76100 Rouen, France",49.4282438,1.0718723,u0bc0q,u0bc0,2.5 km,32 mins
ChIJU4kGwNjd4EcRLmvS29z0Uwc,Les Maraîchers,food,restaurant,,3.0,3.8,633.0,"37 Pl. du Vieux Marché, 76000 Rouen, France",49.4427689,1.0875895,u0bc28,u0bc2,0.7 km,8 mins
ChIJ98YmN9nd4EcRrgWRfmWOPqQ,Coworking la Maison bleue,food,cafe,,,4.7,11.0,"83 Rue Cauchoise, 76000 Rouen, France",49.4448865,1.086593,u0bc29,u0bc2,0.9 km,12 mins
ChIJU1sdcY_d4EcRPuUDpY7_OMk,Saveurs Dorées,shopping,store,['bakery'],,5.0,5.0,"9 Pl. du Général de Gaulle, 76000 Rouen, France",49.4421816,1.0986905,u0bc30,u0bc3,0.5 km,6 mins
ChIJ1cRSCX_e4EcRpsuaC-ywHI4,Restaurant La Petite Auberge,food,restaurant,,2.0,4.6,704.0,"164 Rue Martainville, 76000 Rouen, France",49.4398165,1.0998485,u0bc30,u0bc3,0.4 km,5 mins
ChIJjwZ_O9nd4EcRdl64SXNiugA,La Table de Flore,food,restaurant,,,4.0,131.0,"58 Rue Cauchoise, 76000 Rouen, France",49.444831,1.0874072,u0bc29,u0bc2,0.9 km,11 mins
ChIJlYFYUtjd4EcRABzlzUrKsZw,Maison De Priere,cultural,church,['place_of_worship'],,3.0,1.0,"19 Rue Sainte-Croix-des-Pelletiers, 76000 Rouen, France",49.4438639,1.0897049,u0bc2b,u0bc2,0.7 km,9 mins
ChIJ--xkhIar4EcRifEX39PLI2g,Nicolas Mont Saint Aignan,shopping,store,['liquor_store'],,4.7,28.0,"Rue François Perroux ZAC De la Vatine Centre Commercial Carrefour Local 6, 76130 Mont-Saint-Aignan, France",49.4700556,1.0943675,u0bc2v,u0bc2,4.2 km,1 hour 0 mins
ChIJyQN2ONbd4EcROcNwPn4kGWU,FATHER AND SONS ROUEN,shopping,store,['clothing_store'],,4.4,126.0,"90 Rue des Carmes, 76000 Rouen, France",49.4426971,1.0954706,u0bc2b,u0bc2,0.4 km,5 mins
ChIJCaCG7Mjd4EcRoLQzW16KTXQ,HR Sarl,shopping,store,['bakery'],,4.7,29.0,"1074 Rue du Champ des Oiseaux, 76230 Bois-Guillaume, France",49.4566504,1.0956556,u0bc2g,u0bc2,2.1 km,28 mins
ChIJsyqXXF7e4EcRdTYgJCBkKNU,La Sottevillaise,sport,gym,['health'],,4.3,21.0,"38 Rue Gaston Contremoulins, 76300 Sotteville-lès-Rouen, France",49.4189708,1.0980754,u0bc0u,u0bc0,2.9 km,37 mins
ChIJS_iEBl3c4EcRv0v29VYkOT8,Dominute Pizza,food,restaurant,,2.0,3.4,63.0,"3803 Rte de Neufchâtel, 76230 Bois-Guillaume, France",49.4738313,1.1241298,u0bc3w,u0bc3,4.5 km,1 hour 3 mins
ChIJhYbi69Xd4EcRq1VeF62Zmec,Promod,shopping,store,"['clothing_store', 'shoe_store', 'jewelry_store']",,4.2,105.0,"centre commercial Rouen St Sever, Avenue De Bretagne, 76000 Rouen, France",49.4309084,1.084248,u0bc0w,u0bc0,1.4 km,17 mins
ChIJKUpyj9bd4EcRiOrIg4qxu3o,CAVE BEAUVOISINE,shopping,store,['liquor_store'],,4.5,22.0,"60 Rue Beauvoisine, 76000 Rouen, France",49.4444244,1.0967393,u0bc2c,u0bc2,0.6 km,8 mins
ChIJMwRROtbd4EcRUK7e7wz-nd0,L’annexe (sarl trait d’union),food,restaurant,,,5.0,6.0,"35 Pl. des Carmes, 76000 Rouen, France",49.4422425,1.0953205,u0bc2b,u0bc2,0.4 km,5 mins
ChIJ-XZUT_Td4EcRvbhdAcdMYws,SUAPS,sport,gym,['health'],,4.4,148.0,"Université de Rouen, 33 Bd André Siegfried, 76130 Mont-Saint-Aignan, France",49.4585381,1.0624482,u0bc25,u0bc2,3.9 km,56 mins
ChIJ431WL_vd4EcR_MVdGo6wTF8,"Foyer d'hébergement de l'ARRED - ""l'Étape""",accommodation,lodging,,,4.2,15.0,"7 Rue Manchon Frères, 76000 Rouen, France",49.4490226,1.0689638,u0bc23,u0bc2,2.4 km,30 mins
ChIJQ4_ve0_c4EcRj-Led_iU3A0,McDonald's,food,restaurant,['meal_takeaway'],,3.2,1907.0,"ZA, Rond-Point de la Bretèque, 76230 Bois-Guillaume, France",49.478263,1.101172,u0bc3p,u0bc3,5.2 km,1 hour 12 mins
ChIJZ9cVMM3f4EcRXcjqWampBCY,O'ThaÏ way,food,restaurant,,,4.5,15.0,"119 Rue Saint-Sever, 76100 Rouen, France",49.4317828,1.087343,u0bc0w,u0bc0,1.1 km,15 mins
ChIJI89DvU_d4EcRXjDjXNi6ODQ,UN SON IMPUR,shopping,store,"['electronics_store', 'home_goods_store']",,4.9,23.0,"37 Rue Beauvoisine, 76000 Rouen, France",49.4442985,1.0963159,u0bc2c,u0bc2,0.6 km,7 mins
ChIJi7o85k3f4EcRV_LBUCAlbgw,Pizza Béné,food,restaurant,,,4.7,24.0,"21 Av. des Canadiens, 76800 Saint-Étienne-du-Rouvray, France",49.4006371,1.0645634,u0bc01,u0bc0,5.0 km,1 hour 5 mins
ChIJ2RZLR3ne4EcROVPaTTEbfsw,Le Réverbère,food,restaurant,,4.0,4.3,120.0,"5 Pl. de la République, 76000 Rouen, France",49.4377823,1.0962041,u0bc0z,u0bc0,0.3 km,4 mins
ChIJwYShqtbd4EcRNL_aKSvaYSA,Tommy Hilfiger,shopping,store,['clothing_store'],,3.6,75.0,"36 All. Eugène Delacroix, 76000 Rouen, France",49.4439189,1.0937212,u0bc2b,u0bc2,0.7 km,8 mins
ChIJI7b1JKHf4EcRckArVt5KaOU,MC-COACHING - PILATES - AIR PILATES & COACHING SPORTIF Rouen,sport,gym,['health'],,5.0,6.0,"17 Quai de Paris, 76000 Rouen, France",49.4368711,1.0989699,u0bc1p,u0bc1,0.6 km,8 mins
ChIJUx7Q1eLd4EcRcesYgNesvq4,Potimarron chez La Centrale des Vins,shopping,store,,,3.3,3.0,"9 Quai Ferdinand de Lesseps, 76000 Rouen, France",49.4442141,1.0699073,u0bc23,u0bc2,2.1 km,26 mins
ChIJTRxRisfd4EcRWYfVJW_fG4E,LES MENUS SERVICES,food,restaurant,['meal_delivery'],,5.0,1.0,"59 Rue Jean Lecanuet, 76000 Rouen, France",49.4448188,1.0907364,u0bc2c,u0bc2,0.9 km,11 mins
ChIJb19RsHne4EcR7UkLYFYBS3E,Mon Premier,night_life,bar,,,4.5,59.0,"1 Rue de la Savonnerie, 76000 Rouen, France",49.4384054,1.0936507,u0bc0z,u0bc0,0.2 km,2 mins
ChIJ7w7Cltfd4EcRKOywUSBFAag,EL PALAZZO,night_life,bar,"['restaurant', 'bakery', 'liquor_store', 'store']",3.0,4.0,292.0,"8 All. Eugène Delacroix, 76000 Rouen, France",49.4431272,1.092803,u0bc2b,u0bc2,0.6 km,7 mins
ChIJb2YUoXHe4EcRHb86nQzQaTU,le p’tit resto,night_life,bar,['restaurant'],,5.0,2.0,"10 Pl. des Emmurées, 76100 Rouen, France",49.4336687,1.0875861,u0bc0x,u0bc0,1.0 km,13 mins
ChIJF6-_DiPf4EcR6qUWWcX47AA,Madame,food,restaurant,,,4.1,595.0,"4 Pl. Saint-Marc, 76000 Rouen, France",49.4381201,1.1011284,u0bc1p,u0bc1,0.5 km,6 mins
ChIJM1_hN9bd4EcR63NQhF2m3NY,Courir,shopping,store,"['shoe_store', 'clothing_store']",,3.3,89.0,"88 Rue des Carmes, 76000 Rouen, France",49.4426017,1.0953307,u0bc2b,u0bc2,0.4 km,5 mins
ChIJx8Ncl9bd4EcR-y-thT2sVp4,Chaussor SAS,shopping,store,"['shoe_store', 'health']",,4.9,21.0,"33 Rte de Darnétal, 76000 Rouen, France",49.439232,1.1337426,u0bc3b,u0bc3,3.2 km,41 mins
ChIJuxT4zXHe4EcRfUvzHDsqHDs,La Réponse,shopping,store,['book_store'],,4.2,17.0,"2 All. Marcel Dupré, 76100 Rouen, France",49.4322331,1.0880608,u0bc0y,u0bc0,1.1 km,14 mins
ChIJ2_QyldXd4EcR7JaUC5WdBog,Pitaya Thaï Street Food,food,restaurant,,,3.9,91.0,"128 Rue du Gros Horloge, 76000 Rouen, France",49.4422645,1.0898167,u0bc2b,u0bc2,0.5 km,6 mins
ChIJQcoORDTe4EcRBiIHzAgi80c,Notre Dame de l'Assomption,cultural,church,"['tourist_attraction', 'place_of_worship']",,4.1,76.0,"Rue de Paris, 76300 Sotteville-lès-Rouen, France",49.4174961,1.096125,u0bc0u,u0bc0,3.1 km,39 mins
ChIJeRlExXne4EcROUFc1dWGwWY,LES DESIGNERS DU FEU,shopping,store,['home_goods_store'],,4.3,182.0,"24 Quai Pierre Corneille, 76000 Rouen, France",49.4382829,1.0925617,u0bc0z,u0bc0,0.3 km,3 mins
ChIJtVNn3g3f4EcR51ukoASrLmU,Loops,food,cafe,,,5.0,20.0,"44 Rue de la Champmesle, 76000 Rouen, France",49.4400354,1.0923727,u0bc2b,u0bc2,0.3 km,3 mins
ChIJczg_Bjfn4EcRjsOvHmcIrT4,Canteleu tennis club,sport,gym,['health'],,4.6,11.0,"Rue de Montigny, 76380 Canteleu, France",49.4509895,1.0331448,u0b9rd,u0b9r,5.5 km,1 hour 16 mins
ChIJk7Je69Pd4EcRw-bwV6Bsz1M,"Arnaud Dupré, ébéniste-restaurateur d'art",shopping,store,"['furniture_store', 'home_goods_store']",,4.0,4.0,"183 Rue Beauvoisine, 76000 Rouen, France",49.4474676,1.0989759,u0bc31,u0bc3,1.0 km,13 mins
ChIJAy-vAXje4EcRMuJFGQBJ6CI,DEVRED1902,shopping,store,"['shoe_store', 'clothing_store']",,4.1,183.0,"63 Rue du Gros Horloge, 76000 Rouen, France",49.4412245,1.0920371,u0bc2b,u0bc2,0.3 km,4 mins
ChIJD9HKXNbd4EcRE07FbLfj7r0,Le P’tit Strudel,food,cafe,['restaurant'],,4.9,119.0,"10 Rue Beauvoisine, 76000 Rouen, France",49.4433183,1.0958023,u0bc2b,u0bc2,0.5 km,6 mins
ChIJo8HU08Pd4EcRDsZdylwHXt0,Les Délices de Liza,food,restaurant,['meal_takeaway'],,4.9,12.0,"140 Rue Saint-Hilaire, 76000 Rouen, France",49.4424074,1.1069563,u0bc30,u0bc3,1.1 km,14 mins
ChIJzfInGHje4EcRiF_RDW5izGk,Le Zèbre à pois,food,restaurant,,2.0,4.3,209.0,"17 Rue aux Ours, 76000 Rouen, France",49.4402008,1.0925234,u0bc2b,u0bc2,0.2 km,2 mins
ChIJj9VrN2jc4EcR9M_FjLv-4MM,Villa Léonard,food,restaurant,,3.0,4.4,469.0,"1160 Rue Herbeuse, 76230 Bois-Guillaume, France",49.4697148,1.1277576,u0bc3t,u0bc3,4.4 km,1 hour 2 mins
ChIJqZFniTff4EcRNO7lPwsa6UQ,L’ epicurius Restaurant,food,restaurant,,,4.7,157.0,"31 Rue Damiette, 76000 Rouen, France",49.4406569,1.098403,u0bc2b,u0bc2,0.4 km,5 mins
ChIJ2yCyOB_e4EcRlCdEZhrbhzM,Chartreuse Saint-Julien,nature,park,,,3.9,140.0,"5 Rue du Général Foy, 76140 Le Petit-Quevilly, France",49.4225077,1.0630421,u0bc0j,u0bc0,3.4 km,44 mins
ChIJsY-xy93d4EcRVZRyr48B1PQ,Burger King,night_life,bar,"['meal_takeaway', 'restaurant']",,4.3,1025.0,"84 Rue du Gros Horloge, 76000 Rouen, France",49.4418408,1.0909841,u0bc2b,u0bc2,0.4 km,5 mins
ChIJgV47cUTn4EcR9MoE1mEkjCU,Jardinerie Du Cailly,shopping,store,"['florist', 'furniture_store', 'home_goods_store']",,4.0,549.0,"40 Rue du Canal, 76380 Canteleu, France",49.4572392,1.0463978,u0b9rg,u0b9r,5.0 km,1 hour 3 mins
ChIJFbNSkETc4EcReABbvb2pU80,Comptoir des Vignes Bois-Guillaume,shopping,store,['liquor_store'],,4.1,29.0,"Centre commercial les Bocquets Avenue de l'Europe, 76230 Bois-Guillaume, France",49.4755116,1.108554,u0bc3n,u0bc3,4.7 km,1 hour 6 mins
ChIJ7_TWLE_f4EcRiLegWfhL-7Q,ALANKA ROUEN,shopping,store,['jewelry_store'],,5.0,3.0,"1 Rue de la Croix de Fer, 76000 Rouen, France",49.4410146,1.0950565,u0bc2b,u0bc2,0.3 km,4 mins
ChIJ7YL44O_e4EcRIzIUvOuoX9U,Restaurant Le Rapido,food,restaurant,,,4.1,178.0,"53 Chem. de Halage, 76300 Sotteville-lès-Rouen, France",49.415067,1.1111546,u0bc17,u0bc1,3.4 km,42 mins
ChIJrfGtPofe4EcRRfGvj6RALLE,Hôtel Mercure Rouen Centre Champ de Mars,accommodation,lodging,,,4.0,649.0,"12 Bis Av. Aristide Briand, 76000 Rouen, France",49.4359085,1.1029785,u0bc1p,u0bc1,0.9 km,12 mins
ChIJ_VlWPTfd4EcRjp0X5O4UZ7A,Café Brun,night_life,bar,['cafe'],,4.4,79.0,"84 Rue Cauchoise, 76000 Rouen, France",49.4453318,1.0868589,u0bc29,u0bc2,0.9 km,12 mins
ChIJ4T5E3xXe4EcReKOdNPC2_Tg,Menuiserie Lv,shopping,store,"['furniture_store', 'home_goods_store']",,5.0,1.0,"72 Rue Lethuillier Pinel, 76100 Rouen, France",49.4228115,1.0746253,u0bc0m,u0bc0,2.6 km,34 mins
ChIJB1m4GIbe4EcR8IzcMZMb38c,Point.P - Rouen,shopping,store,['home_goods_store'],,4.1,143.0,"Quai du Pré aux Loups, 76000 Rouen, France",49.4322333,1.106836,u0bc1n,u0bc1,1.4 km,18 mins
ChIJAQDQHr_e4EcRyWqYyca0b6Y,Rénovation Habitat Pro,shopping,store,"['painter', 'furniture_store', 'home_goods_store']",,4.8,21.0,"8 Sq. Jacques Toutain, 76240 Bonsecours, France",49.4230401,1.1285567,u0bc1t,u0bc1,3.5 km,52 mins
ChIJW80WMSTe4EcRl4PgZo8UD0o,Peintures Guy Marchand,shopping,store,"['hardware_store', 'painter']",,4.6,18.0,"48b Bd Stanislas Girardin, 76140 Le Petit-Quevilly, France",49.4141607,1.0647653,u0bc05,u0bc0,3.9 km,51 mins
ChIJoayT-dPd4EcRPPAio8vXtVk,Emporium Galorium,night_life,bar,['cafe'],2.0,3.8,180.0,"151 Rue Beauvoisine, 76000 Rouen, France",49.446756,1.098257,u0bc2c,u0bc2,0.9 km,12 mins
ChIJCw8SIwDc4EcRXbpAMFumc90,Centre Paroissial,cultural,church,['place_of_worship'],,4.4,9.0,"9 Rue de la Chaîne, 76160 Darnétal, France",49.4415171,1.1457253,u0bc60,u0bc6,4.2 km,54 mins
ChIJI962xOPd4EcR4kEjOCq_k3I,Brico Dépôt,shopping,store,"['hardware_store', 'furniture_store', 'home_goods_store']",,3.7,2438.0,"100 Av. du Mont Riboudet, 76000 Rouen, France",49.445455,1.0745654,u0bc23,u0bc2,1.9 km,25 mins
ChIJOR_ERo_f4EcRDHU-i6uTlUY,Sushi first Sotteville-lès-Rouen,food,restaurant,['meal_delivery'],,4.2,144.0,"42 Pl. Voltaire, 76300 Sotteville-lès-Rouen, France",49.4239704,1.0887149,u0bc0v,u0bc0,2.1 km,27 mins
ChIJlxLHnaHe4EcRc9D9d-NJlfQ,Danimo,shopping,store,['pet_store'],,4.3,790.0,"2 Rue de la Petite Chartreuse, 76000 Rouen, France",49.4371822,1.1280737,u0bc1x,u0bc1,2.7 km,33 mins
ChIJX4g7mtbd4EcRuoEtmHjFgQY,Yash Hosting,accommodation,lodging,,,1.0,1.0,"Haute-Normandie, 65 Rue Beauvoisine, 76000 Rouen, France",49.4448557,1.0969486,u0bc2c,u0bc2,0.7 km,8 mins
ChIJn1d6CNjd4EcRiOtct1BW1Kw,Bar Tabac FDJ du Gros Horloge,night_life,bar,,,3.7,56.0,"97 Rue du Gros Horloge, 76000 Rouen, France",49.4415585,1.0910449,u0bc2b,u0bc2,0.4 km,5 mins
ChIJVVUh_Dfe4EcRD8gn7ANjMV0,LP PIZZA,food,restaurant,"['meal_delivery', 'meal_takeaway']",,4.3,339.0,"182 Av. du 14 Juillet, 76300 Sotteville-lès-Rouen, France",49.4107452,1.0792521,u0bc0d,u0bc0,3.8 km,49 mins
ChIJhYbi69Xd4EcRD36t_141WMU,Darjeeling Rouen Saint Sever,shopping,store,['clothing_store'],,4.6,46.0,"Avenue de Bretagne Centre Commercial ST Sever Niveau Rdc, 76100 Rouen, France",49.4306211,1.0840786,u0bc0w,u0bc0,1.4 km,18 mins
ChIJwcRIWTTn4EcRNDXoGWcjPH8,Coccimarket,shopping,store,['convenience_store'],,4.3,12.0,"12 Rue Alexandre Dumas, 76380 Canteleu, France",49.4446645,1.0323559,u0b9r3,u0b9r,5.8 km,1 hour 20 mins
ChIJpbsh_9Xd4EcRrVe7sJ3Npz0,MOK,food,restaurant,,,4.6,207.0,"20 BIS Pl. Saint-Amand, 76000 Rouen, France",49.4415516,1.0976776,u0bc2b,u0bc2,0.4 km,6 mins
ChIJ5ajF-X7e4EcRA0mfEQxc-MU,Le Pied de Poule,food,restaurant,,,4.2,151.0,"16 Rue Victor Hugo, 76000 Rouen, France",49.4382653,1.0999155,u0bc1p,u0bc1,0.5 km,5 mins
ChIJVSIx54He4EcR4zZNXWjFE6U,Relay France Snc,food,restaurant,"['liquor_store', 'store']",,3.7,123.0,"1 Rue de Germont, 76000 Rouen, France",49.4406775,1.1100839,u0bc32,u0bc3,1.4 km,18 mins
ChIJDcfw5mze4EcRYWgNI2YL4Iw,Chic O Kaz,shopping,store,['clothing_store'],,2.0,2.0,"79 Rue Saint-Julien, 76100 Rouen, France",49.4283724,1.0819735,u0bc0w,u0bc0,1.7 km,22 mins
ChIJLb2-3djd4EcREJZ1paDpLQg,Jean-Marie Delestre,shopping,store,"['electronics_store', 'home_goods_store']",,5.0,14.0,"5 bis Rue de Florence, 76000 Rouen, France",49.4433663,1.0876236,u0bc28,u0bc2,0.8 km,10 mins
ChIJLyao-tnd4EcRi3VZJ6aMnsI,Église Saint-Patrice,cultural,church,['place_of_worship'],,4.8,13.0,"1 Rue Abbé Cochet, 76000 Rouen, France",49.445931,1.0915008,u0bc2c,u0bc2,1.0 km,12 mins
ChIJHRmApv7d4EcREuYCIhzEAzE,Yogurt Factory (Docks 76 - Rouen),food,cafe,"['meal_delivery', 'store', 'restaurant']",,4.2,49.0,"5-7 Rue Netien, 76000 Rouen, France",49.4459728,1.0653463,u0bc21,u0bc2,2.6 km,32 mins
ChIJx61Venfe4EcRWOHhYuSAxC8,Restaurant GILL,food,restaurant,,4.0,4.7,496.0,"8-9 Quai de la Bourse, 76000 Rouen, France",49.4386383,1.0910503,u0bc2b,u0bc2,0.4 km,5 mins
ChIJgZFJ9dXd4EcRehDh8e4mCvs,Ginette,night_life,bar,"['restaurant', 'cafe']",,4.0,616.0,"25 - 27 Pl. du Lieutenant Aubert, 76000 Rouen, France",49.4415267,1.0987414,u0bc30,u0bc3,0.5 km,7 mins
ChIJm4UCpnje4EcRCLUdUBuaUuY,Crêperie Roland,food,cafe,"['restaurant', 'store']",2.0,4.4,408.0,"22 Rue Saint-Nicolas, 76000 Rouen, France",49.4411538,1.0967305,u0bc2b,u0bc2,0.4 km,5 mins
ChIJ-fvmcdbd4EcRFy_oZoPvwNY,Viv'eden Rouen - Salle de sport santé,sport,gym,['health'],,4.6,109.0,"17 Rue des Arsins, 76000 Rouen, France",49.4430744,1.0967095,u0bc2b,u0bc2,0.6 km,7 mins
ChIJxTsfFnje4EcRBrGviyVg4rQ,Im Initiales,shopping,store,['home_goods_store'],,5.0,4.0,"11 Rue aux Ours, 76000 Rouen, France",49.4401646,1.0926546,u0bc2b,u0bc2,0.2 km,2 mins
ChIJA7hb-n_e4EcRdbjB1-t0hpk,Medium Musique,shopping,store,"['electronics_store', 'home_goods_store']",,4.5,269.0,"22 Rue Camille Saint-Saëns, 76000 Rouen, France",49.440209,1.09076,u0bc2b,u0bc2,0.4 km,5 mins
ChIJASRvdQDc4EcReNy7P36jCeI,"L'Étincelle, Théâtre(s) de la Ville de Rouen",shopping,store,,,4.5,10.0,"Billetterie de L'étincelle, 4 Pl. de la Rougemare, 76000 Rouen, France",49.4450696,1.0990017,u0bc31,u0bc3,0.8 km,11 mins
ChIJS8R6Utbd4EcRyZreoL5pquU,Lumière d'Aout,shopping,store,['book_store'],,4.8,50.0,"7 Rue de l'École, 76000 Rouen, France",49.4434816,1.0948462,u0bc2b,u0bc2,0.5 km,7 mins
ChIJHY7RTQzd4EcRYZefEsfYMB8,Jacuzzi Rouen,accommodation,lodging,['spa'],,4.9,19.0,"8 Rue du Pré de la Bataille, 76000 Rouen, France",49.4462371,1.0776899,u0bc29,u0bc2,1.6 km,20 mins
ChIJgb0x0FDn4EcR4192QRIHUfs,Viva Frais,shopping,store,['bakery'],,3.0,3.0,"Av. Bernard Bicheray, 76000 Rouen, France",49.45004,1.052544,u0b9rf,u0b9r,3.6 km,45 mins
ChIJ7w7Cltfd4EcRWysqDkly_VU,Café de l'Echiquier,night_life,bar,"['cafe', 'restaurant', 'store']",4.0,3.8,269.0,"8 All. Eugène Delacroix, 76000 Rouen, France",49.4431606,1.0932298,u0bc2b,u0bc2,0.5 km,7 mins
ChIJwQmk-nfe4EcR_XZStURvy64,Piano 76,shopping,store,"['electronics_store', 'home_goods_store']",,4.7,23.0,"3B Rue des Petites Eaux, 76160 Darnétal, France",49.4374937,1.1398781,u0bc1z,u0bc1,3.6 km,45 mins
ChIJ418hadjd4EcRNJVbYm-hP4Y,Le Fleuron,night_life,bar,['cafe'],,4.7,23.0,"8 Rue Ecuyere, 76000 Rouen, France",49.4425245,1.0900238,u0bc2b,u0bc2,0.6 km,7 mins
ChIJfw9n-H3e4EcRIa8_uhJ6tVg,LE HONFLEUR,food,restaurant,,,4.3,8.0,"12 bis Av. Aristide Briand, 76000 Rouen, France",49.4358148,1.1039888,u0bc1p,u0bc1,0.9 km,12 mins
ChIJzRQ1WNnf4EcRh9pPOFV_XQw,Pizzeria,food,restaurant,,,3.6,38.0,"C.C. LES BRUYÈRES, 6 Bd Stanislas Girardin, 76140 Le Petit-Quevilly, France",49.4153449,1.0640631,u0bc05,u0bc0,3.9 km,51 mins
ChIJ66BUjtjd4EcRdAvu2asK52k,La Tables des Hôtes,food,restaurant,,,4.7,7.0,"25 Pl. de la Pucelle, 76000 Rouen, France",49.4422748,1.088479,u0bc2b,u0bc2,0.6 km,8 mins
ChIJgaVtPc_f4EcRzZM7ewhhwNg,Boulangerie BORDA,shopping,store,['bakery'],,4.3,121.0,"Impasse de Lyons la Forêt ZA les 2 rivières, 76000 Rouen, France",49.4365133,1.1295903,u0bc1x,u0bc1,2.7 km,34 mins
ChIJ7R_prnHe4EcRNU2r9z9h0nA,SAFI SMARTPHONE,shopping,store,['electronics_store'],,4.1,9.0,"68 Rue Saint-Sever, 76100 Rouen, France",49.4336386,1.0882979,u0bc0z,u0bc0,0.9 km,12 mins
ChIJY8issdjd4EcRlKqdiLPHbB8,Le Bakoua,food,restaurant,,3.0,4.2,228.0,"20 Rue du Vieux Palais, 76000 Rouen, France",49.4422854,1.0867798,u0bc28,u0bc2,0.8 km,9 mins
ChIJKQRQUHje4EcRjQI6YemmZ3E,Les Augustins,food,cafe,['restaurant'],2.0,4.5,129.0,"13 Pl. Saint-Marc, 76000 Rouen, France",49.4381237,1.1001209,u0bc1p,u0bc1,0.5 km,6 mins
ChIJyYfEY9bd4EcRXb5gusAVurI,ANG Bath,shopping,store,"['furniture_store', 'home_goods_store']",,5.0,2.0,"15 Rue Jean Lecanuet, 76000 Rouen, France",49.4437429,1.0965009,u0bc2b,u0bc2,0.6 km,7 mins
ChIJlxjRa9jd4EcRjvptfFjroLw,CAVE BERIGNY,shopping,store,['liquor_store'],,4.6,119.0,"7 Rue Rollon, 76000 Rouen, France",49.44253,1.090128,u0bc2b,u0bc2,0.5 km,7 mins
ChIJ-XjrRGvd4EcRddq4GwA5eUc,Espace Marc-Sangnier,shopping,library,,,4.6,68.0,"1 Rue Nicolas Poussin, 76130 Mont-Saint-Aignan, France",49.4633736,1.0715657,u0bc2k,u0bc2,3.5 km,51 mins
ChIJj660s5Ld4EcRBr655ecBpac,Cinéma Ariel,entertainment,movie_theater,,,4.3,137.0,"Pl. Colbert, 76130 Mont-Saint-Aignan, France",49.4627377,1.0699976,u0bc2k,u0bc2,3.6 km,51 mins
ChIJjQ7upXje4EcR4J3C3v6gJj0,LE P'TIT DRESSING,shopping,store,['clothing_store'],,4.4,9.0,"33 Rue Saint-Nicolas, 76000 Rouen, France",49.4410401,1.0966437,u0bc2b,u0bc2,0.4 km,5 mins
ChIJbwcH-vfd4EcRf8KtJyUzU2c,Leroy Lauriane,night_life,bar,,,4.2,21.0,"176 Rue du Renard, 76000 Rouen, France",49.4523428,1.0595496,u0bc24,u0bc2,3.2 km,41 mins
ChIJ3QD0atjd4EcRGLtelBKFzFw,Comtesse du Barry,shopping,store,['liquor_store'],,4.2,46.0,"4 Rue Rollon, 76000 Rouen, France",49.442633,1.09044,u0bc2b,u0bc2,0.5 km,7 mins
ChIJZyH24RLe4EcRtxfy1uaeDr4,Nelson Mandela Gymnase,sport,gym,['health'],,4.4,151.0,"Rue des Murs Saint-Yon, 76100 Rouen, France",49.4289314,1.0784439,u0bc0w,u0bc0,2.0 km,26 mins
ChIJxcVsBind4EcRoxu8Uinht5U,Teashop & Co,food,cafe,,,4.9,40.0,"17 Rue des Boucheries Saint-Ouen, 76000 Rouen, France",49.441917,1.0990735,u0bc30,u0bc3,0.5 km,7 mins
ChIJCaVkwdDd4EcRxwUCMXBV2Ms,Café Tabacs de la Gare,night_life,bar,"['cafe', 'restaurant', 'store']",,3.9,100.0,"109 Rue Jeanne d'Arc, 76000 Rouen, France",49.4476019,1.0936611,u0bc2c,u0bc2,1.1 km,15 mins
ChIJI8SUnlPc4EcR7NGoueKEOXg,Mag Presse,shopping,store,['book_store'],,3.6,66.0,"CENTRE COMMERCIAL CARREFOUR MARKET LES BOCQUETS, 76230 Bois-Guillaume, France",49.4759716,1.1072331,u0bc3n,u0bc3,4.8 km,1 hour 7 mins
ChIJj4IFTdbd4EcRwYaB_p-GFzA,K-Way Rouen,shopping,store,['clothing_store'],,4.4,33.0,"26 Rue Ganterie, 76000 Rouen, France",49.4432863,1.0948,u0bc2b,u0bc2,0.5 km,6 mins
ChIJ8-ATwnDe4EcR9d0Y-cl9RwE,TAMPONS DU MAIL ROUEN,shopping,store,,,4.6,11.0,"10 Rue Saint-Sever, 76100 Rouen, France",49.4351651,1.0896348,u0bc0z,u0bc0,0.7 km,9 mins
ChIJi3tUFqbe4EcRfWz1A9pFTik,LMS Rouen - La Maison du Sol,shopping,store,['home_goods_store'],,4.5,11.0,"Rue des Jardiniers, 76000 Rouen, France",49.4371791,1.1356442,u0bc1z,u0bc1,3.2 km,40 mins
ChIJvQtbtn_e4EcRUTqNhkOQ808,Le Grand Saint-Marc,night_life,bar,,,3.9,150.0,"29 Rue Armand Carrel, 76000 Rouen, France",49.4394137,1.1014468,u0bc30,u0bc3,0.6 km,7 mins
ChIJKS7lwH_e4EcR-GyvMV5N38I,Bijouterie Floc'h,shopping,store,['jewelry_store'],,4.6,38.0,"35 Rue Armand Carrel, 76000 Rouen, France",49.4398482,1.1017304,u0bc30,u0bc3,0.6 km,8 mins
ChIJuVdSb4Pf4EcRaRuVvZvx3cM,Poké Shop Rouen,food,cafe,['restaurant'],,4.6,177.0,"56 Rue d'Amiens, 76000 Rouen, France",49.4412435,1.0993112,u0bc30,u0bc3,0.5 km,6 mins
ChIJAQA8eSrc4EcRs-C4kb0yThs,Bar Tabac Le Flash,night_life,bar,,,4.3,24.0,"10 Rue Edouard Adam, 76000 Rouen, France",49.4415434,1.1061956,u0bc30,u0bc3,1.1 km,13 mins
ChIJ96YNnnje4EcR-9F6li4ow9s,FREE LANCE,shopping,store,['shoe_store'],,4.0,4.0,"65 Rue Saint-Nicolas, 76000 Rouen, France",49.4413991,1.0956507,u0bc2b,u0bc2,0.4 km,4 mins
ChIJFVOeENbd4EcRXDaKHDdrxzg,Trend Burger,food,restaurant,,2.0,4.3,557.0,"28 Pl. des Carmes, 76000 Rouen, France",49.4420611,1.0964803,u0bc2b,u0bc2,0.5 km,6 mins
ChIJqcg90ejd4EcRhe8x0GmqulE,Le Jehanne,food,restaurant,,,4.7,55.0,"6 Rue du Donjon, 76000 Rouen, France",49.4466724,1.0944296,u0bc2c,u0bc2,1.0 km,13 mins
ChIJRVTC1eLd4EcR3-WNNuMccKQ,La Centrale Des Vins,shopping,store,['liquor_store'],,4.6,82.0,"Hangar N°, 10 Quai Ferdinand de Lesseps, 76000 Rouen, France",49.4444638,1.0679636,u0bc23,u0bc2,2.2 km,28 mins
ChIJxVXhCtbd4EcR_EuBAksZlqU,Frip And Co,shopping,store,['clothing_store'],,4.3,87.0,"13 Rue de l'Hôpital, 76000 Rouen, France",49.4425725,1.0971756,u0bc2b,u0bc2,0.6 km,7 mins
ChIJ_5fK9Gfe4EcRwVNGrUanFtY,Imprim Eco,shopping,store,['electronics_store'],,4.3,73.0,"86 Rue Pierre Corneille, 76300 Sotteville-lès-Rouen, France",49.4213294,1.0924463,u0bc0u,u0bc0,2.5 km,32 mins
ChIJhRT_Rdbd4EcRmhTQsVrASHI,Bar de la Crosse,night_life,bar,,,4.4,44.0,"53 Rue de l'Hôpital, 76000 Rouen, France",49.4428619,1.0958303,u0bc2b,u0bc2,0.5 km,6 mins
ChIJIWCSrZff4EcRl4YLtcmE5K8,BUONA PIZZA ROUEN,food,restaurant,['meal_delivery'],,4.9,22.0,"1 Rue du Professeur W-M Stewart, 76000 Rouen, France",49.4371295,1.1083665,u0bc1p,u0bc1,1.1 km,14 mins
ChIJaSor0jjd4EcRTHXVFnlhXV0,My YUBA,food,restaurant,,,5.0,81.0,"40 Rue Louis Ricard, 76000 Rouen, France",49.4460635,1.100219,u0bc31,u0bc3,0.9 km,12 mins
ChIJV4aWjdPd4EcRe5U3cC3FvAA,Muséum d'Histoire Naturelle,cultural,museum,['tourist_attraction'],,4.3,598.0,"198 Rue Beauvoisine, 76000 Rouen, France",49.4472129,1.0991075,u0bc31,u0bc3,1.0 km,13 mins
ChIJLYOxgt7d4EcRu7x1vVCaCkk,Armada Rouen,accommodation,lodging,,,4.5,2.0,"Haute-Normandie, 36 Rue du Renard Appartement B 1er étage, 76000 Rouen, France",49.4465669,1.0843222,u0bc29,u0bc2,1.2 km,16 mins
ChIJR3ZTYwDc4EcRIIacfCVb5Gc,Kusadasi,night_life,bar,['restaurant'],,3.8,231.0,"71 Rue de Longpaon, 76160 Darnétal, France",49.4433578,1.1469963,u0bc60,u0bc6,4.4 km,56 mins
ChIJXSUILHne4EcRyr1zHpaeJZg,Le Café Noir,night_life,bar,"['cafe', 'restaurant', 'store']",,4.3,96.0,"28 Rue de la République, 76000 Rouen, France",49.4384766,1.0969193,u0bc2b,u0bc2,0.2 km,3 mins
ChIJG2u_NdTd4EcRfLhUERVmF9g,Pâtisserie Salon de Thé KENTA ET AKIRA,food,cafe,"['bakery', 'store']",,4.8,134.0,"47 bis Pl. du Général de Gaulle, 76000 Rouen, France",49.4441711,1.0988029,u0bc31,u0bc3,0.7 km,9 mins
ChIJ9U8FXX_e4EcRRy0_NisrwAQ,Pomegranate,shopping,store,['clothing_store'],,4.0,5.0,"45 Rue Damiette, 76000 Rouen, France",49.4408829,1.0986442,u0bc30,u0bc3,0.4 km,5 mins
ChIJ9Xnd9NXd4EcR0wbJF_Qy7Wo,Bistro Nova,food,restaurant,,,4.6,219.0,"29 Pl. du Lieutenant Aubert, 76000 Rouen, France",49.4415859,1.0987205,u0bc30,u0bc3,0.5 km,7 mins
ChIJ1006Bnje4EcR9TFowztRBCg,Bocage Rouen,shopping,store,['shoe_store'],,4.1,25.0,"44-46 Rue du Gros Horloge, 76000 Rouen, France",49.4412625,1.0924033,u0bc2b,u0bc2,0.3 km,3 mins
ChIJK15eIp7e4EcRzX55s0zc9mE,Auberge de jeunesse de Rouen,accommodation,lodging,,,3.8,129.0,"3 Rue du Tour, Rte de Darnétal, 76000 Rouen, France",49.4413323,1.1201585,u0bc32,u0bc3,2.2 km,29 mins
ChIJKYS_TKbd4EcRul-xHPqWX2w,adopt,shopping,store,['clothing_store'],,4.2,22.0,"Centre Commercial Dock, 76 Bd Ferdinand de Lesseps, 76000 Rouen, France",49.4458241,1.0656909,u0bc23,u0bc2,2.5 km,31 mins
ChIJX5WTJtfd4EcRGLD_y3QAqso,Hôtel Morand,accommodation,lodging,,,3.1,230.0,"1 Rue Morand, 76000 Rouen, France",49.4456848,1.0945039,u0bc2c,u0bc2,0.9 km,11 mins
ChIJ_XDlwizc4EcRY0sMILBUJeA,Villa La Gloriette,accommodation,lodging,,,4.3,6.0,"7 Rue des Pleins Champs, 76000 Rouen, France",49.4483688,1.1042533,u0bc31,u0bc3,1.4 km,20 mins
ChIJCbt5FYHe4EcR5CyX8DbzXbg,Gourmands Du Faubourg,shopping,store,['bakery'],,4.5,31.0,"Rue du Faubourg Martainville, 76000 Rouen, France",49.4375386,1.1068603,u0bc1p,u0bc1,1.0 km,13 mins
ChIJrW1e2qve4EcRt5rf0XRR7ng,Église Saint-PIerre,cultural,church,['place_of_worship'],,4.0,6.0,"Rue Saint-Pierre, 76160 Darnétal, France",49.4376544,1.1424996,u0bc1z,u0bc1,3.9 km,49 mins
ChIJm4tyGtHd4EcR5CgHbUuJ_es,Église Saint-Romain,cultural,church,['place_of_worship'],,4.5,35.0,"17 Rue du Champ des Oiseaux, 76000 Rouen, France",49.4484716,1.0953959,u0bc2c,u0bc2,1.2 km,16 mins
ChIJzQ3jPNbd4EcRK3s-i2R7hhc,Le P'Tit Creux,night_life,bar,['cafe'],,4.7,77.0,"38 bis Pl. des Carmes, 76000 Rouen, France",49.4424842,1.0958994,u0bc2b,u0bc2,0.4 km,5 mins
ChIJD8DL7e3f4EcRJLPliG4QWGY,Hanoi Gourmet,food,cafe,"['restaurant', 'bakery', 'store']",,3.6,56.0,"80 Rue Martainville, 76000 Rouen, France",49.4387707,1.1034052,u0bc30,u0bc3,0.7 km,9 mins
ChIJrVEnqGPd4EcRkP04y_0BnxM,Emma Pâtisserie Boulangerie Rouen,food,restaurant,"['bakery', 'store']",,4.4,143.0,"23 All. Eugène Delacroix, 76000 Rouen, France",49.443851,1.093251,u0bc2b,u0bc2,0.6 km,8 mins
ChIJl1TY4Nbd4EcR4L3ih8bQiqo,Bibliothèque patrimoniale Villon (Rn'Bi),shopping,library,,,3.7,25.0,"3 Rue Jacques Villon, 76000 Rouen, France",49.4445972,1.0950189,u0bc2c,u0bc2,0.7 km,9 mins
ChIJV-HiJdHd4EcRobUBWULmZ9E,Le Palais Indien,food,restaurant,,2.0,4.2,219.0,"93 Rue Bouvreuil, 76000 Rouen, France",49.4470196,1.0950693,u0bc2c,u0bc2,1.0 km,13 mins
ChIJaWCp5vnd4EcRtO7x-CUCftA,Maison de quartier Binet,sport,gym,['health'],,4.3,3.0,"1 Rue Binet, 76000 Rouen, France",49.4508555,1.0624626,u0bc24,u0bc2,2.9 km,37 mins
ChIJ_dRm9DPf4EcRGdzEc1jqBuY,Mag delice,food,restaurant,"['meal_delivery', 'meal_takeaway']",,3.5,125.0,"40 Rue Pavée, 76100 Rouen, France",49.4316233,1.0872991,u0bc0w,u0bc0,1.2 km,15 mins
ChIJr0WWENfd4EcR1suGkgujNpg,Musée des Beaux-Arts de Rouen - Réunion des Musées Métropolitains (RMM),cultural,museum,['tourist_attraction'],,4.5,2467.0,"Esp. Marcel Duchamp, 76000 Rouen, France",49.4447861,1.0945829,u0bc2c,u0bc2,0.8 km,10 mins
ChIJY7yfgH_e4EcREJ1-oA4hDTI,La buvette du Robec,food,cafe,,1.0,4.7,132.0,"219 Rue Eau de Robec, 76000 Rouen, France",49.4413729,1.1004475,u0bc30,u0bc3,0.6 km,7 mins
ChIJmci8jtjd4EcRwlb_K3-ClI0,New Uludag,food,restaurant,,,4.5,207.0,"18 Pl. de la Pucelle, 76000 Rouen, France",49.4424117,1.0887038,u0bc2b,u0bc2,0.6 km,7 mins
ChIJZV8HS-Hd4EcR4h20WDUuiWU,Marical Sébastien,night_life,bar,,,2.0,1.0,"52 Rue de Constantine, 76000 Rouen, France",49.4465464,1.0766017,u0bc23,u0bc2,1.7 km,22 mins
ChIJGS1eZ93f4EcRWKlHtBHjIBs,Ker Juliette,food,restaurant,['store'],,4.0,150.0,"Centre commercial Saint-Sever, Av. de Bretagne, 76100 Rouen, France",49.4309793,1.0833333,u0bc0w,u0bc0,1.5 km,19 mins
ChIJ5bnNf9_d4EcRrhf4K_WUxo4,Le Figuier,food,restaurant,,2.0,4.5,88.0,"31 Rue Anatole France, 76000 Rouen, France",49.4415782,1.0836454,u0bc28,u0bc2,1.0 km,12 mins
ChIJJWproOPd4EcRhUY0cRZIO1Q,McDonald's,food,restaurant,['meal_takeaway'],1.0,3.4,2145.0,"33 Av. du Mont Riboudet, 76000 Rouen, France",49.445048,1.0728889,u0bc23,u0bc2,1.9 km,24 mins
ChIJ6VDnFrXd4EcRIjbXO62QSR0,Sushi Tea-m,food,cafe,['restaurant'],,4.9,69.0,"5 Rue Ecuyere, 76000 Rouen, France",49.4424321,1.0896848,u0bc2b,u0bc2,0.5 km,7 mins
ChIJPUf6cnje4EcR7JaOum9lqqY,La Grignotine Rouennaise,shopping,store,['bakery'],,3.2,30.0,"16 Rue du Gros Horloge, 76000 Rouen, France",49.441048,1.0930881,u0bc2b,u0bc2,0.2 km,3 mins
ChIJCZZ1QtPf4EcRlkWRy3c0HiA,Notre-Dame cathedral,cultural,church,['place_of_worship'],,4.7,43.0,"76000 Rouen, France",49.4404372,1.0941221,u0bc2b,u0bc2,77 m,1 min
ChIJlW4aTNnd4EcRFfz76fizBVQ,Thiebaut Thierry Louis,shopping,store,['bakery'],,1.0,2.0,"60 Rue Jean Lecanuet, 76000 Rouen, France",49.4457769,1.0869542,u0bc29,u0bc2,1.0 km,13 mins
ChIJE0e0C3je4EcRAKm_IGFg31w,CAMARA,shopping,store,"['electronics_store', 'home_goods_store']",,4.3,80.0,"15 Rue du Bec, 76000 Rouen, France",49.4413445,1.0928724,u0bc2b,u0bc2,0.3 km,3 mins
ChIJXdpFnXje4EcRI4AaeUkyToA,Hôtel Mercure Rouen Centre Cathédrale,accommodation,lodging,,,4.1,805.0,"7 Rue Croix De Fer, Accès Parking, Rue des Arsins, 76000 Rouen, France",49.4413974,1.0952957,u0bc2b,u0bc2,0.3 km,4 mins
ChIJ58mDwnHe4EcRSalIfmFxVs0,Suzanne Jean-Yves,shopping,store,['bakery'],,3.8,4.0,"110 Rue Saint-Sever, 76100 Rouen, France",49.4320534,1.0869267,u0bc0w,u0bc0,1.2 km,15 mins
ChIJdQHh797d4EcRqolSAcunzTE,Le Flaubert,food,restaurant,,,4.6,68.0,"48 Av. Gustave Flaubert, 76000 Rouen, France",49.4447783,1.0842901,u0bc29,u0bc2,1.0 km,13 mins
ChIJRaxx03ne4EcRzHB7e8rHHJs,STREET ART HÔTEL,night_life,bar,['lodging'],,3.6,117.0,"6 Rue Saint-Etienne des Tonneliers, 76000 Rouen, France",49.4389039,1.0919889,u0bc2b,u0bc2,0.3 km,4 mins
ChIJHZ3c_2je4EcRr8AALBWmeg4,Bar de L'Univers,night_life,bar,['restaurant'],,3.5,15.0,"21 Rue Meridienne, 76300 Sotteville-lès-Rouen, France",49.4237859,1.0884109,u0bc0v,u0bc0,2.2 km,28 mins
ChIJjasznXfe4EcR_wt2i3jNxPU,Le Palais d'Asie,food,restaurant,,,4.6,164.0,"33 Rue Saint-Etienne des Tonneliers, 76000 Rouen, France",49.4390402,1.0910242,u0bc2b,u0bc2,0.4 km,5 mins
ChIJTwuTUL7d4EcRu-T82YROFM8,EPOXY - Normandy,night_life,night_club,['bar'],,4.7,21.0,"13 Rue de Crosne, 76000 Rouen, France",49.4434739,1.0868658,u0bc28,u0bc2,0.8 km,10 mins
ChIJpbB3wNjd4EcRPr9pfI8x9r0,Marcel Apéro Bistro,food,restaurant,,,3.7,602.0,"39 Pl. du Vieux Marché, 76000 Rouen, France",49.4427827,1.0875041,u0bc28,u0bc2,0.7 km,8 mins
ChIJm9oTjd3b4EcRh8iTuSQc6kM,Le Gibbon Créations,shopping,store,['jewelry_store'],,5.0,1.0,"283 Rue de Longpaon, 76160 Darnétal, France",49.4488239,1.1505347,u0bc61,u0bc6,4.9 km,1 hour 3 mins
ChIJUTqIV3je4EcRbHbxPNaGlAQ,Boulangerie fournil du carré d or,shopping,store,['bakery'],,4.1,149.0,"44 Rue Saint-Nicolas, 76000 Rouen, France",49.4413279,1.0956429,u0bc2b,u0bc2,0.4 km,4 mins
ChIJYb10Cnje4EcR-Fso4kWPI3U,Grazie !,food,restaurant,,,3.5,100.0,"19 Rue du Bec, 76000 Rouen, France",49.4415307,1.0930174,u0bc2b,u0bc2,0.3 km,4 mins
ChIJLzK-fW3e4EcRFcTvX1ik5y4,Brasserie Le Chalet,food,restaurant,"['meal_delivery', 'meal_takeaway']",,3.6,461.0,"Centre Commercial Saint-Sever Rouen, Pl. de la Verrerie, 76100 Rouen, France",49.4312308,1.0837374,u0bc0w,u0bc0,1.5 km,19 mins
ChIJmXG0Idjd4EcR0UE58g4hJ7Q,AU PETIT COUSCOUS,night_life,bar,['restaurant'],,2.3,3.0,"10 Rue Percière, 76000 Rouen, France",49.4429823,1.0918882,u0bc2b,u0bc2,0.6 km,7 mins
ChIJDRf_aCrc4EcRndrNDuhca_I,Le Monde,night_life,bar,['store'],,3.3,3.0,"152 Rue Saint-Hilaire, 76000 Rouen, France",49.4424255,1.1066725,u0bc30,u0bc3,1.1 km,14 mins
ChIJw9qh7djd4EcR_vzNJ9kHSps,Église Sainte-Jeanne-d'Arc,cultural,church,"['tourist_attraction', 'place_of_worship']",,4.4,2132.0,"Pl. du Vieux Marché, 76000 Rouen, France",49.4428963,1.0883676,u0bc2b,u0bc2,0.6 km,8 mins
ChIJQZ6MwnHe4EcRpbFi-mOmwfg,Brasserie l'Express,food,restaurant,,,3.8,185.0,"21 Pl. Saint-Sever, 76100 Rouen, France",49.4301462,1.0850693,u0bc0w,u0bc0,1.4 km,18 mins
ChIJGyoWyVTZ4EcRkhlKGAiyiA8,Atelier de Tapisserie et de Sellerie,shopping,store,"['furniture_store', 'home_goods_store']",,5.0,4.0,"11 Rue aux Juifs n° 24 CAP, 76160 Darnétal, France",49.4364825,1.1467654,u0bc4p,u0bc4,4.1 km,51 mins
ChIJuRWymebn4EcRadUWlIfyslg,Boulangerie Mika'Hel,shopping,store,['bakery'],,4.6,101.0,"55 Rte de Dieppe, 76250 Déville-lès-Rouen, France",49.460967,1.054188,u0b9ru,u0b9r,4.3 km,55 mins
ChIJf5rGOnje4EcRVFPs3xOKOSI,Aux Métaux Précieux - Achat / Vente d’Or / Bijoux - Rouen,shopping,store,['jewelry_store'],,4.8,54.0,"70 Rue du Général Leclerc, 76000 Rouen, France",49.4396778,1.0924444,u0bc2b,u0bc2,0.2 km,3 mins
ChIJhY7PtLnh4EcRy9YBdNRUxNA,IZAKAYA,food,restaurant,,,4.8,178.0,"3 Rue Paul Vaillant Couturier, 76120 Le Grand-Quevilly, France",49.4204333,1.0491434,u0b9pu,u0b9p,4.4 km,58 mins
ChIJjxHaD-Dd4EcRlFUnJRxdf7o,Smoking Dog Restaurant Bar Tabac,night_life,bar,,,4.2,95.0,"36 Quai Gaston Boulet, 76000 Rouen, France",49.4422694,1.0800139,u0bc28,u0bc2,1.3 km,16 mins
ChIJUZk9NH_e4EcRNoibJjWmn54,Antico Caffe,food,cafe,,2.0,3.8,373.0,"11 Pl. Barthélémy, 76000 Rouen, France",49.439882,1.0975717,u0bc2b,u0bc2,0.3 km,3 mins
ChIJKXTSXdjd4EcRlGPAYr_vets,Chapellerie Falbalas Saint Junien - Rouen,shopping,store,['clothing_store'],,4.6,35.0,"16 Rue Rollon, 76000 Rouen, France",49.4428994,1.0894806,u0bc2b,u0bc2,0.6 km,7 mins
ChIJNYNJ99Xd4EcRXClGbFsDpRA,ITO,food,restaurant,,2.0,4.0,435.0,"92 Rue de la République, 76000 Rouen, France",49.44167,1.098348,u0bc2b,u0bc2,0.5 km,6 mins
ChIJ977yftjd4EcRkEiPcy6EleE,Le Vicomté,night_life,bar,,2.0,4.0,373.0,"70 Rue de la Vicomte, 76000 Rouen, France",49.4417193,1.089257,u0bc2b,u0bc2,0.5 km,7 mins
ChIJKQFT73fe4EcR71Ob8ip2XnQ,Ouh la la !,shopping,store,"['movie_rental', 'book_store', 'electronics_store', 'home_goods_store']",,4.2,10.0,"46 Rue aux Ours, 76000 Rouen, France",49.4408106,1.0908856,u0bc2b,u0bc2,0.3 km,4 mins
ChIJi5i6N37e4EcRmrki7XwVN5w,Kebab Saint Marc,food,restaurant,,1.0,4.0,335.0,"Pl. Saint-Marc, 76000 Rouen, France",49.4379535,1.1003587,u0bc1p,u0bc1,0.5 km,6 mins
ChIJKbst1Xfe4EcRbh6xyQwS7D4,Le fournil Jeanne d'Arc,shopping,store,['bakery'],,4.2,55.0,"Rue de la Vicomte, 76000 Rouen, France",49.4414055,1.0891371,u0bc2b,u0bc2,0.5 km,6 mins
ChIJd6kQQxbc4EcRzVsoxTKV8tc,Salle Louis Jouvet,entertainment,movie_theater,,,4.1,46.0,"Rue Albert Dupuis, 76000 Rouen, France",49.4565563,1.1288539,u0bc3e,u0bc3,3.6 km,53 mins
ChIJ15qh0ynd4EcRayS_VamcAcs,Les Concessions,food,restaurant,,,4.5,165.0,"150 Rue Eau de Robec, 76000 Rouen, France",49.4414876,1.1013928,u0bc30,u0bc3,0.7 km,8 mins
ChIJm_exAEjd4EcRfTQos6dldJo,Bar Le Vintage,night_life,bar,['restaurant'],,4.8,98.0,"8 Rue Jean Lecanuet, 76000 Rouen, France",49.4438109,1.0974744,u0bc2b,u0bc2,0.6 km,8 mins
ChIJ_43lToXd4EcRcXh3DZgSutQ,Pagani,food,restaurant,['meal_takeaway'],,4.1,316.0,"26 Rpe Cauchoise, 76000 Rouen, France",49.4464132,1.0862614,u0bc29,u0bc2,1.1 km,14 mins
ChIJRataUxLd4EcR9wFU0RcCC1c,Do Wich,food,restaurant,['store'],,5.0,83.0,"31 Rue de l'Hôpital, 76000 Rouen, France",49.4427671,1.0964109,u0bc2b,u0bc2,0.5 km,6 mins
ChIJ8flYweTd4EcR3CvRLqUz528,Résidence étudiante Studéa,accommodation,lodging,,,4.0,24.0,"21 Rue Saint-Filleul, 76000 Rouen, France",49.4485501,1.0707389,u0bc23,u0bc2,2.2 km,28 mins
ChIJcR0Ch9Xf4EcRvtinglYwY8Y,Les trois brocantes,shopping,store,"['furniture_store', 'home_goods_store']",,5.0,2.0,"40a Rue aux Ours, 76000 Rouen, France",49.4407239,1.0911734,u0bc2b,u0bc2,0.3 km,4 mins
ChIJtT7V8W3e4EcR-0qPEXHhJTw,Elan Gymnique,sport,gym,['health'],,4.9,18.0,"Sur les terrases, acces par la place de l'église, 10-18 Rue Saint-Julien, 76100 Rouen, France",49.4305493,1.0849155,u0bc0w,u0bc0,1.4 km,18 mins
ChIJ0XtlRyje4EcRDxQ5QckknwM,Gymnase Maryse Bastié,sport,gym,['health'],,4.1,14.0,"Rue Maryse Bastié, 76120 Le Grand-Quevilly, France",49.4095746,1.058594,u0bc04,u0bc0,4.7 km,1 hour 1 min
ChIJgw-pNHne4EcRcqQ2UtIKzYg,Le Joubeil,food,restaurant,['meal_delivery'],,4.4,267.0,"52 Rue des Augustins, 76000 Rouen, France",49.4380117,1.0970938,u0bc0z,u0bc0,0.4 km,4 mins
ChIJrb52ETXd4EcRhzubeIoQEFA,Cherry café ambulant,food,cafe,['store'],,5.0,3.0,"Pl. du Vieux Marché, 76000 Rouen, France",49.4430828,1.0886319,u0bc2b,u0bc2,0.6 km,8 mins
ChIJn6-J_tfd4EcRGQoL679wJP4,French Coffee Shop,food,cafe,['store'],,4.4,691.0,"16 Rue Thouret, 76000 Rouen, France",49.4417494,1.0921854,u0bc2b,u0bc2,0.4 km,5 mins
ChIJ1-Rx38Td4EcRL0fLdp6ZgLo,FITWAVE Rouen Mont-Saint-Aignan,sport,gym,['health'],,4.8,4.0,"12 Rue Linus-Carl-Pauling, 76130 Mont-Saint-Aignan, France",49.4734277,1.0935382,u0bc2y,u0bc2,4.4 km,1 hour 3 mins
ChIJGWpoD-Dd4EcRat1wgY4-7Yk,"SHARE & Cheers ! Hostel + Bar : Auberge de jeunesse, Rooftop, Dortoir, chambres privées (ROUEN - NORMANDIE)",night_life,bar,['lodging'],,4.3,48.0,"28 Quai Gaston Boulet, 76000 Rouen, France",49.4422495,1.0802513,u0bc28,u0bc2,1.3 km,16 mins
ChIJzyqv5tjd4EcRWWwRDco2dl8,Ma Boulangerie,shopping,store,['bakery'],,4.3,356.0,"6 Pl. du Vieux Marché, 76000 Rouen, France",49.4430833,1.089296,u0bc2b,u0bc2,0.6 km,8 mins
ChIJo5NrKyvc4EcR_oyTSC3zLFk,Église Saint-Nicaise de Rouen,cultural,church,"['tourist_attraction', 'place_of_worship']",,4.5,46.0,"12 Rue Saint-Nicaise, 76000 Rouen, France",49.4441481,1.1031969,u0bc31,u0bc3,1.1 km,14 mins
ChIJ2XgW3N7d4EcR59XQblHsU7Y,O Belge Kebab,food,restaurant,,,3.8,338.0,"61 Bd des Belges, 76000 Rouen, France",49.444518,1.085285,u0bc29,u0bc2,1.0 km,12 mins
ChIJPaGaE9jd4EcRbGGetMz_i-g,PAUL Jeanne d'Arc,food,cafe,"['bakery', 'restaurant', 'store']",,3.4,368.0,"35 Rue Jeanne d'Arc, 76000 Rouen, France",49.442358,1.09057,u0bc2b,u0bc2,0.5 km,6 mins
ChIJb42C_Arf4EcRfG0r7YErgZQ,L'Atrium,cultural,museum,,,4.5,145.0,"115 Bd de l'Europe, 76100 Rouen, France",49.428176,1.079603,u0bc0w,u0bc0,1.9 km,24 mins
ChIJyQU2KtTf4EcRO9u0oLmvRs0,A Taberna Portuguesa,food,restaurant,,,4.4,383.0,"3b Av. des Canadiens, 76800 Saint-Étienne-du-Rouvray, France",49.4029045,1.0664547,u0bc03,u0bc0,4.8 km,1 hour 2 mins
ChIJrffu1YHe4EcRT2e-vG5hEYs,Accès Digital,shopping,store,"['electronics_store', 'home_goods_store']",,4.9,25.0,"6 Bis Rue Edouard Adam, 76000 Rouen, France",49.4413224,1.1060556,u0bc30,u0bc3,1.0 km,13 mins
ChIJbw_OQ4Pf4EcRe8B47ygEH8M,Uchiwa Gallery,cultural,art_gallery,,,5.0,5.0,"20 bis Rue Saint-Romain, 76000 Rouen, France",49.4402312,1.0966713,u0bc2b,u0bc2,0.3 km,4 mins
ChIJTZIPWkDc4EcRO3rNGgoJozU,Société Normande Peinture Revêtements S.N.P.R,shopping,store,"['painter', 'home_goods_store']",,4.3,10.0,"565 Rue Herbeuse, 76230 Bois-Guillaume, France",49.4636014,1.1238,u0bc3s,u0bc3,3.6 km,53 mins
ChIJYUc04qbd4EcR47Lreskoyog,Place du Général de Gaulle,nature,park,,,5.0,3.0,"Pl. du Général de Gaulle, 76000 Rouen, France",49.4433787,1.0992846,u0bc30,u0bc3,0.7 km,9 mins
ChIJm7pFSHnf4EcR-9TTiXat0wc,ELECTRO DEPOT ROUEN,shopping,store,"['department_store', 'electronics_store', 'furniture_store', 'home_goods_store']",,3.9,2496.0,"2 Rue Paul Vaillant Couturier, 76120 Le Grand-Quevilly, France",49.4226902,1.0472179,u0b9pv,u0b9p,5.0 km,1 hour 5 mins
ChIJLWjOqqre4EcRXuuw-CDc3GU,Le Carnot,night_life,bar,['store'],,4.3,53.0,"31 Rue Sadi Carnot, 76160 Darnétal, France",49.4405768,1.1474702,u0bc60,u0bc6,4.2 km,54 mins
ChIJnZ83sHHe4EcRJ57FFKOpx1c,La Rotonde,food,restaurant,,,4.5,62.0,"59 Rue Saint-Sever, Pl. des Emmurées, 76100 Rouen, France",49.4331703,1.0882292,u0bc0z,u0bc0,1.0 km,13 mins
ChIJd6LNWvzd4EcRJ7Pvzrn_vEs,Swarovski,shopping,store,['jewelry_store'],,4.4,63.0,"76 Bd Ferdinand de Lesseps, 76000 Rouen, France",49.4460066,1.0655531,u0bc21,u0bc2,2.5 km,31 mins
ChIJeS0Q5Lnf4EcREB-sXXwa7zs,Resto Viet au SQUARE HENRI IV,food,restaurant,,,4.0,134.0,"55 rue des Charrettes Place Henri IV, 22 Rue d'Harcourt, 76000 Rouen, France",49.4408909,1.0853272,u0bc28,u0bc2,0.9 km,11 mins
ChIJxaOxm_vd4EcRpIpkAQ8cpUg,La Villa H - Berliner Kebab - Burgers Gourmets - Double Burgers - Tacos - Rouen,food,restaurant,,,4.2,142.0,"47/49 Rue Edouard Adam, 76000 Rouen, France",49.4420437,1.1060345,u0bc30,u0bc3,1.1 km,13 mins
ChIJGTTg7z3c4EcRmjJQYGez4dQ,Lefebvre Traiteur,shopping,store,,,4.5,44.0,"55 Rue Jean Texcier, 76420 Bihorel, France",49.4557198,1.1250124,u0bc3e,u0bc3,3.4 km,50 mins
ChIJRRFhzPvd4EcRkL_5Oa4hvGA,O'delices,food,restaurant,,,3.2,102.0,"194b Av. du Mont Riboudet, 76000 Rouen, France",49.4492123,1.0651795,u0bc21,u0bc2,2.6 km,33 mins
ChIJRbQBEj3d4EcRxUyA1IYe_B4,Le BG,food,restaurant,,,4.7,168.0,"Zac des Bocquets, Av. de l'Europe, 76230 Bois-Guillaume, France",49.476225,1.1071543,u0bc3n,u0bc3,4.9 km,1 hour 9 mins
ChIJAdj84yfc4EcRSBt-d4JHcYc,Franprimeur,shopping,store,['convenience_store'],,3.5,6.0,"260 Rte de Darnétal, 76000 Rouen, France",49.4421889,1.1144893,u0bc32,u0bc3,1.8 km,23 mins
ChIJO13hJ9bd4EcR2mzvYMUeVtU,Le Saint Nicolas,night_life,bar,['restaurant'],,4.5,154.0,"70 Rue Saint-Nicolas, 76000 Rouen, France",49.4416777,1.0949964,u0bc2b,u0bc2,0.3 km,4 mins
ChIJAeNpJiTe4EcRPkGah0UD-Ew,Emmaüs,shopping,store,['home_goods_store'],,3.9,139.0,"Bd Stanislas Girardin, 76140 Le Petit-Quevilly, France",49.4152154,1.0630488,u0bc05,u0bc0,4.1 km,54 mins
ChIJN0PnDXTe4EcRfA1taxoC3EY,Claire's,shopping,store,['jewelry_store'],,4.0,29.0,"Centre commercial Les Docks, 76 76 Bd Ferdinand de Lesseps, 76000 Rouen, France",49.4453363,1.0645747,u0bc21,u0bc2,2.5 km,31 mins
ChIJo6Ie_Prd4EcRSbHg7MCH5Uw,Bar-Tabac Le Mistral,night_life,bar,,,4.0,1.0,"16 Rue Galilée, 76000 Rouen, France",49.4560623,1.138859,u0bc3g,u0bc3,5.1 km,1 hour 10 mins
ChIJ55TH79jd4EcRtFpeDvdCsE4,Place Du Vieux Marché,cultural,tourist_attraction,,,4.4,5122.0,"Pl. du Vieux Marché, 76000 Rouen, France",49.4433433,1.0883707,u0bc2b,u0bc2,0.7 km,8 mins
ChIJmSeJyFTZ4EcR0cUpuArANLQ,Atelier des Boiseux,shopping,store,['home_goods_store'],,4.3,229.0,"ZAC Cap, 11 Rue aux Juifs Lot 12, 76160 Darnétal, France",49.4361707,1.1472974,u0bc4p,u0bc4,4.1 km,52 mins
ChIJpftIXE3f4EcRzeNi2Kx_Zn4,JNG Jardin,nature,park,,,5.0,1.0,"11 Pass. Pierre Petit, 76140 Le Petit-Quevilly, France",49.4287563,1.0678145,u0bc0q,u0bc0,2.8 km,36 mins
ChIJW8xIeXje4EcRSSB0u0mpdrc,HEMA,shopping,store,"['department_store', 'home_goods_store', 'clothing_store']",,4.1,682.0,"10-12 Rue des Carmes, 76000 Rouen, France",49.4411912,1.0943145,u0bc2b,u0bc2,0.2 km,3 mins
ChIJ91QVImne4EcRi1u7QkV-oB0,Alarme de Normandie Plus,shopping,store,"['electronics_store', 'home_goods_store']",,4.1,8.0,"57 Rue de Lessard, 76100 Rouen, France",49.4297957,1.0927905,u0bc0y,u0bc0,1.5 km,20 mins
ChIJb6lYL9jd4EcRG29h8s7bVG4,Bijoutier Inédit Joaillier Créateur,shopping,store,['jewelry_store'],,4.4,9.0,"70 Rue Jeanne d'Arc, 76000 Rouen, France",49.4433787,1.0914918,u0bc2b,u0bc2,0.6 km,8 mins
ChIJrbq6gSTc4EcRwECX5SV3NTQ,L'Edelweiss,shopping,store,['florist'],,4.9,29.0,"24 Av. Olivier de Serres, 76000 Rouen, France",49.4488861,1.1201184,u0bc33,u0bc3,2.6 km,39 mins
ChIJ1fz_PUIv4EcRWa0uN5Pxf9Q,Le Tanneur,shopping,store,,,4.2,58.0,"76 Bd Ferdinand de Lesseps, 76000 Rouen, France",49.4456509,1.0651321,u0bc21,u0bc2,2.5 km,32 mins
ChIJa2JMkETc4EcROElOPsj49HQ,Le Troquet,night_life,bar,['restaurant'],,4.3,214.0,"49 Av. de l'Europe, 76230 Bois-Guillaume, France",49.4761111,1.1072222,u0bc3n,u0bc3,4.9 km,1 hour 8 mins
ChIJu7KqFqvd4EcR0PZTNeFe9ZY,Buffalo Grill,food,restaurant,,2.0,4.2,2398.0,"Parc d'activités de la Bretèque, 76230 Bois-Guillaume, France",49.479027,1.102613,u0bc3p,u0bc3,5.1 km,1 hour 12 mins
ChIJd1IIoNjd4EcRvT8NgDcA7TE,MICROPHIL,shopping,store,['electronics_store'],,4.1,100.0,"48 Rue Saint-Eloi, 76000 Rouen, France",49.4414334,1.0877561,u0bc2b,u0bc2,0.6 km,8 mins
ChIJ-7C9LAfe4EcRor1etzXv228,KDI Partner Nord Normandie,shopping,store,,,4.1,8.0,"15 Quai de France, 76171 Rouen, France",49.4389621,1.0626493,u0bc20,u0bc2,2.7 km,34 mins
ChIJ4Z40aDHn4EcRFk-iG8lRrlA,Association Culturelle Turque de Canteleu,cultural,mosque,['place_of_worship'],,4.8,24.0,"75 Rue du Chêne À Leu, 76380 Canteleu, France",49.4479693,1.0295298,u0b9r3,u0b9r,5.8 km,1 hour 20 mins
ChIJRSzy5fzd4EcRrc9aGbP-4n0,Le Temps des Cerises,shopping,store,['clothing_store'],,4.6,161.0,"Centre Commercial Dock 76, 1 Bd Ferdinand de Lesseps, 76000 Rouen, France",49.446111,1.065,u0bc21,u0bc2,2.6 km,33 mins
ChIJ40nnspLd4EcRFcdJ4xpHKSs,Poissonnerie au Grand Dauphin,food,restaurant,,,4.5,138.0,"26 Pl. Colbert, 76130 Mont-Saint-Aignan, France",49.4627571,1.0708865,u0bc2k,u0bc2,3.6 km,51 mins
ChIJDd5u9_zd4EcRIWcnNG8Yx8Y,"NACHOS - Fajita, burrito, tacos, bowl",food,restaurant,"['meal_delivery', 'meal_takeaway']",1.0,4.4,837.0,"Bd Ferdinand de Lesseps, 76000 Rouen, France",49.4453891,1.0651488,u0bc21,u0bc2,2.5 km,31 mins
ChIJ-TGrBOXd4EcR9ErzHm40neI,Basic Fit,sport,gym,['health'],,2.9,29.0,"70 Quai Gaston Boulet, 76000 Rouen, France",49.4430495,1.0783205,u0bc28,u0bc2,1.5 km,18 mins
ChIJdfea1dDd4EcRFaox1WkI3SA,gite Bouvreuil (AYA),accommodation,lodging,,,2.5,2.0,"75 Rue Bouvreuil, 76000 Rouen, France",49.4467092,1.0947637,u0bc2c,u0bc2,1.0 km,13 mins
ChIJw8cnAHje4EcRI-FdcUSWwFU,Cabane,shopping,store,['home_goods_store'],,4.7,25.0,"3 Rue Thouret, 76000 Rouen, France",49.4415065,1.0918842,u0bc2b,u0bc2,0.3 km,4 mins
ChIJX7sG1Fbf4EcRzsqDWOmO6pw,Boulangerie L'arbre à pains,shopping,store,['bakery'],,4.6,22.0,"48 Av. Jean Jaurès, 76140 Le Petit-Quevilly, France",49.4280843,1.0676288,u0bc0q,u0bc0,2.7 km,36 mins
ChIJqQVXENbd4EcRjxA6-2zA8sg,Chambres d'Hôtes Les Carmes,accommodation,lodging,,,4.3,10.0,"30 Pl. des Carmes, 76000 Rouen, France",49.4421511,1.0965815,u0bc2b,u0bc2,0.5 km,6 mins
ChIJP3kZPlPZ4EcR9ugBp-5-Ty8,EXTRA Seted,shopping,store,['home_goods_store'],,3.7,71.0,"3 Rue Sainte-Marguerite, 76160 Saint-Léger-du-Bourg-Denis, France",49.4340177,1.1493722,u0bc4p,u0bc4,4.2 km,54 mins
ChIJ2_ERkXfe4EcR1t4h44MdVao,Au Grand Nulle Part,shopping,store,['book_store'],,4.8,44.0,"102 Rue du Général Leclerc, 76000 Rouen, France",49.4399389,1.0906667,u0bc2b,u0bc2,0.3 km,4 mins
ChIJwxM2Ktbd4EcRK0rv_ESGq7A,Finsbury chaussures,shopping,store,['shoe_store'],,4.4,15.0,"81 Rue Saint-Nicolas, 76000 Rouen, France",49.4415606,1.0948703,u0bc2b,u0bc2,0.3 km,4 mins
ChIJ2_-G6H7e4EcR1Kqm95RVbAs,Guidoline,night_life,bar,"['cafe', 'bicycle_store', 'store']",,4.8,80.0,"38 Rue Molière, 76000 Rouen, France",49.4382016,1.0988579,u0bc1p,u0bc1,0.4 km,5 mins
ChIJbSzF4cPd4EcRvZeVULEJXy0,The Brew Society,night_life,bar,['restaurant'],,5.0,1.0,"1 Av. Bernard Bicheray, 76000 Rouen, France",49.4493412,1.0495714,u0b9rc,u0b9r,3.8 km,49 mins
ChIJKU82LbXd4EcRk0kXsWfKnF4,Eglise Saint-Paul,cultural,church,['place_of_worship'],,4.8,4.0,"Pt Rue de l'Église, 76230 Bois-Guillaume, France",49.4672809,1.1091739,u0bc3j,u0bc3,3.6 km,52 mins
ChIJm9DZunDc4EcRvtctV8PRHLo,Studio Archimède-Films,entertainment,movie_theater,,,5.0,1.0,"espace Corneille, 4 Rue Pierre Corneille, 76420 Bihorel, France",49.4645537,1.1321343,u0bc3u,u0bc3,4.4 km,1 hour 1 min
ChIJ137Hx3Tc4EcRmwzOHTX6EDk,Asptt Rouen Athlétisme,sport,stadium,,,4.4,20.0,"22 All. Pierre de Coubertin, 76000 Rouen, France",49.4589388,1.1460126,u0bc65,u0bc6,5.8 km,1 hour 19 mins
ChIJt9JuY9jd4EcR_jXsjUwJtxM,Jonak Rouen,shopping,store,['shoe_store'],,3.7,80.0,"165 Rue du Gros Horloge, 76000 Rouen, France",49.442238,1.089379,u0bc2b,u0bc2,0.5 km,6 mins
ChIJVUV4qbvg4EcRniBK_nuy8Sw,L'Orange bleue - Salle de sport,sport,gym,['health'],,4.7,90.0,"6 Rue de l'Ancienne Mare, 76140 Le Petit-Quevilly, France",49.4291245,1.0439287,u0b9py,u0b9p,4.5 km,58 mins
ChIJee_fdL3d4EcRiiKMswgzhjc,L'Alchimie,night_life,bar,,,4.6,80.0,"1 bis Rue de l'Hôpital, 76000 Rouen, France",49.442467,1.0978257,u0bc2b,u0bc2,0.6 km,7 mins
ChIJzXUeCeDd4EcRhE4K5CO88A0,JV CLUB,night_life,bar,,,4.2,85.0,"26 B Quai Gaston Boulet, 76000 Rouen, France",49.442046,1.08046,u0bc28,u0bc2,1.3 km,16 mins
ChIJqxb7ENnd4EcRLXx-5ugO4JY,Le philing,night_life,night_club,['bar'],,3.8,6.0,"79 Rue des Bons Enfants, 76000 Rouen, France",49.4447684,1.0882049,u0bc2c,u0bc2,0.9 km,11 mins
ChIJRSzy5fzd4EcRsd8R1yo8PeQ,My Cafe,food,cafe,['store'],,4.0,124.0,"Centre commercial DOCKS 76, 1 Bd Ferdinand de Lesseps, 76000 Rouen, France",49.4465259,1.0653637,u0bc21,u0bc2,2.6 km,33 mins
ChIJS-Mziavf4EcRHefikha089M,M. Patachon,food,restaurant,,,5.0,21.0,"7 Rue Hélène Boucher, 76100 Rouen, France",49.4244994,1.0678283,u0bc0m,u0bc0,2.9 km,37 mins
ChIJMYcXUCrf4EcRtujGmMhL_xE,Radar,cultural,tourist_attraction,,,5.0,2.0,"73 Rue d'Elbeuf, 76100 Rouen, France",49.425622,1.0825821,u0bc0t,u0bc0,1.9 km,25 mins
ChIJv7U4Hlnn4EcR2Ij5RMmN07I,Sarl ferminox,shopping,store,"['furniture_store', 'home_goods_store']",,2.2,12.0,"Av. du Général Leclerc, 76250 Déville-lès-Rouen, France",49.4555795,1.0561658,u0bc25,u0bc2,3.7 km,48 mins
ChIJh2Ayzdnd4EcRxNHoPRikGIo,Restaurant Hokkaido,food,restaurant,,2.0,4.6,349.0,"5 Rue des Bons Enfants, 76000 Rouen, France",49.4440498,1.0910954,u0bc2c,u0bc2,0.7 km,9 mins
ChIJmWxdLqHg4EcRVhg4QPvkGJ8,Gare Petit quevilly,cultural,museum,,,4.0,1.0,"3 Rue Rouget de l'Isle, 76140 Le Petit-Quevilly, France",49.4260573,1.0548083,u0bc0j,u0bc0,3.9 km,51 mins
ChIJm1Bq9Wze4EcRdnoVCIHrkFo,Restaurant L'Epicurien,night_life,bar,"['restaurant', 'liquor_store', 'store']",1.0,4.1,129.0,"100 Bd de l'Europe, 76100 Rouen, France",49.4277386,1.0825314,u0bc0w,u0bc0,1.8 km,23 mins
ChIJUXaDgRXd4EcRaf5qQl0hQyM,YŪGŌ,night_life,bar,['restaurant'],,4.8,276.0,"3 Pl. du Maréchal Foch, 76000 Rouen, France",49.4422515,1.0912805,u0bc2b,u0bc2,0.5 km,6 mins
ChIJVUYQR5vf4EcRRnYxdpGnSc4,E.Leclerc Manège À Bijoux,shopping,store,['jewelry_store'],,3.8,160.0,"Centre Commercial Saint Sever, Av. de Bretagne, 76100 Rouen, France",49.4304248,1.0829266,u0bc0w,u0bc0,1.6 km,21 mins
ChIJISMWYyrc4EcRatsakbsuDco,"SBCI ""Muay Thaï pour tous"" - ESPRIT SPORT",sport,gym,['health'],,4.7,3.0,"49 Rue Edouard Adam, 76000 Rouen, France",49.4420437,1.1060345,u0bc30,u0bc3,1.1 km,13 mins
ChIJg3kUpn_e4EcRzKKr7L2Tncw,FOUQUET Guillaume Antiquités,cultural,art_gallery,,,5.0,1.0,"228 Rue Martainville, 76000 Rouen, France",49.439968,1.09867,u0bc30,u0bc3,0.3 km,4 mins
ChIJUSUQ7Rfc4EcR1-nX4RwYgcA,Église Saint-Jean-Eudes de Rouen,cultural,church,['place_of_worship'],,4.2,27.0,"Rue du Dr Payenneville, 76000 Rouen, France",49.452134,1.1270681,u0bc3d,u0bc3,3.2 km,48 mins
ChIJm0WrK2ze4EcRT57fYH_uveA,Jardin Saint-Sever,nature,park,,,3.8,61.0,"33 Rue d'Elbeuf, 76100 Rouen, France",49.4286357,1.0855741,u0bc0w,u0bc0,1.6 km,20 mins
ChIJAVRzs1ne4EcRUKQTnPupgak,Gmaxmicro Sarl,shopping,store,['electronics_store'],,4.8,62.0,"457 Rue de Paris, 76300 Sotteville-lès-Rouen, France",49.4126624,1.0989861,u0bc15,u0bc1,3.6 km,46 mins
ChIJO5rrGkXf4EcRmIlolAY4WzY,"Reparation informatique Rouen : Réparation et Dépannage Informatique, Changement Ecran Dalle Pc, Connecteur de charge, Disque dur à Quevilly, Sotteville-lès-Rouen, Mont-Saint-Aignan, Bois-Guillaume",shopping,store,['electronics_store'],,2.0,1.0,"58 Rue de la Champmesle, 76000 Rouen, France",49.4406931,1.0928465,u0bc2b,u0bc2,0.2 km,2 mins
ChIJoYBYZ3_e4EcRPw6pSvWGocE,Bijouterie - Rive Or joaillerie,shopping,store,['jewelry_store'],,4.5,16.0,"4 Pl. du Lieutenant Aubert, 76000 Rouen, France",49.4412134,1.0989444,u0bc30,u0bc3,0.4 km,5 mins
ChIJ9Xo-eeDd4EcRsXndq5nXC0k,La Regalette,food,restaurant,,,4.8,21.0,"35 Rue de le Nostre, 76000 Rouen, France",49.4437198,1.0805082,u0bc28,u0bc2,1.2 km,15 mins
ChIJBc-gUNjd4EcR2_zpFcbrMDo,SELECT RECORDS ROUEN,shopping,store,"['electronics_store', 'home_goods_store']",,4.3,159.0,"97 Rue de la Vicomte, 76000 Rouen, France",49.4419232,1.0891089,u0bc2b,u0bc2,0.6 km,7 mins
ChIJV5Pxsl7d4EcRsz4xmGRH80A,Fontaine de la Croix-de-Pierre,cultural,tourist_attraction,,,4.2,19.0,"Pl. de la Croix de Pierre, 76000 Rouen, France",49.442407,1.1063053,u0bc30,u0bc3,1.1 km,14 mins
ChIJ8ctusHHe4EcRZGDIB01OsrY,Au Bon Accueil,night_life,bar,['restaurant'],2.0,3.7,18.0,"61Bis Rue Saint-Sever, 76100 Rouen, France",49.433126,1.0881448,u0bc0z,u0bc0,1.0 km,13 mins
ChIJBydTKPLf4EcRqUC59NN0UeI,Dr. Martens,shopping,store,['shoe_store'],,4.5,35.0,"21-23 Rue du Gros Horloge, 76000 Rouen, France",49.4408631,1.0931198,u0bc2b,u0bc2,0.2 km,3 mins
ChIJu82h_m3d4EcR33KbLYirqe4,Wooper's Rouen,food,restaurant,,,4.2,135.0,"Bd Ferdinand de Lesseps, 76000 Rouen, France",49.4454323,1.0641225,u0bc21,u0bc2,2.6 km,33 mins
ChIJ8VJJ6dDd4EcRFa_PlFxQRl4,Ma Boulange,shopping,store,['bakery'],,4.0,1.0,"119 Rue Jeanne d'Arc, 76000 Rouen, France",49.448093,1.0938903,u0bc2c,u0bc2,1.2 km,16 mins
ChIJEZ4UCVjn4EcRQNwU8PivNa4,Culte Antoiniste,cultural,church,['place_of_worship'],,4.0,1.0,"145 Bd Jean Jaurès, 76000 Rouen, France",49.4528067,1.0585359,u0bc24,u0bc2,3.3 km,43 mins
ChIJnwEAHm7e4EcROPQyKzlO_ek,Restaurant Urban Grill,food,restaurant,,,4.8,305.0,"133 Rue Saint-Sever, 76100 Rouen, France",49.4313097,1.0868887,u0bc0w,u0bc0,1.2 km,16 mins
ChIJUcxw-_zd4EcRPvju7ZJIj2U,So Rouen,night_life,night_club,"['bar', 'restaurant']",,3.9,1156.0,"Hangar, 9 Quai Ferdinand de Lesseps, 76000 Rouen, France",49.4443936,1.069104,u0bc23,u0bc2,2.2 km,27 mins
ChIJ0S2S2NKBVg0RpcepHHOt7mo,B&B HOTEL,accommodation,lodging,,,3.3,702.0,"8 Pl. de l'Eglise Saint-Sever, 76100 Rouen, France",49.4304135,1.0848314,u0bc0w,u0bc0,1.4 km,18 mins
ChIJe9Sgryjc4EcRU0PPEEiG1Gc,L'Almendra,entertainment,movie_theater,,,4.2,162.0,"1 Rue Paul Baudoin, 76000 Rouen, France",49.4457763,1.1137554,u0bc33,u0bc3,2.0 km,28 mins
ChIJUUOGktjd4EcR3CnoE-rpXCM,D'eux-mêmes,food,restaurant,,2.0,4.2,653.0,"place du 76000, 9 Pl. du Vieux Marché, 76000 Rouen, France",49.4426199,1.0882912,u0bc2b,u0bc2,0.6 km,7 mins
ChIJgULm6dDd4EcRMe-xYM_6848,Subway,food,restaurant,['meal_takeaway'],2.0,3.6,166.0,"111 Bis Rue Jeanne d'Arc, 76000 Rouen, France",49.447897,1.0938406,u0bc2c,u0bc2,1.2 km,16 mins
ChIJ0-bOTNnd4EcRLUASi5ht9XA,Hôtel Dandy,accommodation,lodging,,,3.5,130.0,"93A Rue Cauchoise, 76000 Rouen, France",49.4452614,1.0866417,u0bc29,u0bc2,0.9 km,12 mins
ChIJpUiWXiff4EcR8Ams-QitPZk,KITCHEN FAB - Rouen,shopping,store,"['furniture_store', 'home_goods_store']",,5.0,4.0,"4 Rue de la République, 76000 Rouen, France",49.4377103,1.0965494,u0bc0z,u0bc0,0.3 km,4 mins
ChIJNWILQHje4EcR4o5GQs-xyBg,Rimini,shopping,store,['shoe_store'],,4.7,58.0,"43 Rue Grand Pont, 76000 Rouen, France",49.440157,1.093137,u0bc2b,u0bc2,0.2 km,2 mins
ChIJJxs0hbPd4EcRcC3w3Ug236s,Gabriella Sarl,shopping,store,['clothing_store'],,3.0,1.0,"9 Rue des Guérets, 76130 Mont-Saint-Aignan, France",49.4670329,1.100302,u0bc3j,u0bc3,4.0 km,56 mins
ChIJuVtDxFHn4EcRkVN6-yJX-FI,Top Deco,shopping,store,['home_goods_store'],,4.0,1556.0,"15 Av. Bernard Bicheray, 76000 Rouen, France",49.448455,1.0482653,u0b9rc,u0b9r,4.0 km,50 mins
ChIJE3i0oare4EcRTKAP95hjFoE,Houel Sylvain,shopping,store,['bakery'],,4.5,52.0,"64 Rue Sadi Carnot, 76160 Darnétal, France",49.440821,1.1463309,u0bc60,u0bc6,4.1 km,53 mins
ChIJ8WvlDafe4EcRztgwuec0ngs,Gym's New Form's,sport,gym,['health'],,4.2,20.0,"33 Rte de Darnétal, 76000 Rouen, France",49.439208,1.132169,u0bc3b,u0bc3,3.1 km,38 mins
ChIJGdUsAXje4EcRp3vWBQ4raTs,Maison 123,shopping,store,['clothing_store'],,3.7,36.0,"52 Rue du Gros Horloge, 76000 Rouen, France",49.4412848,1.0922499,u0bc2b,u0bc2,0.3 km,4 mins
ChIJWSqkRH7e4EcRfj4I72uod2I,Subway,food,restaurant,['meal_takeaway'],1.0,2.9,175.0,"36 Rue Armand Carrel, 76000 Rouen, France",49.4378155,1.1008302,u0bc1p,u0bc1,0.6 km,7 mins
ChIJ2V7gInje4EcRduWxgNSykF4,Le 44,food,restaurant,,,4.4,25.0,"44 Rue de la Champmesle, 76000 Rouen, France",49.4400354,1.0923727,u0bc2b,u0bc2,0.3 km,3 mins
ChIJ__6TVn7f4EcRO0oiPNVORbk,Boulangerie Catel,shopping,store,['bakery'],,3.9,138.0,"157 Av. Jean Jaurès, 76140 Le Petit-Quevilly, France",49.4252293,1.057683,u0bc0j,u0bc0,3.5 km,45 mins
ChIJEdCnm37e4EcRxLRUqjBBdxE,American Pub - L'Académie de Billard,night_life,bar,['store'],,4.5,216.0,"13 Quai de Paris, 76000 Rouen, France",49.4367971,1.0993279,u0bc1p,u0bc1,0.6 km,8 mins
ChIJqVtItNnd4EcRr6OIuMMx3fA,Les Brigades du Kitsch,night_life,bar,"['restaurant', 'liquor_store', 'store']",,4.4,304.0,"21 Rue des Bons Enfants, 76000 Rouen, France",49.4441667,1.0902778,u0bc2c,u0bc2,0.8 km,10 mins
ChIJGXd-1dLf4EcRGd0p7YtLnp0,Food Station76,food,restaurant,,,3.8,628.0,"74 Rue Paul Bert, 76800 Saint-Étienne-du-Rouvray, France",49.400912,1.065053,u0bc01,u0bc0,5.0 km,1 hour 5 mins
ChIJqcW0wwne4EcR0tUW4VlgY_Q,River's Pub,night_life,bar,['restaurant'],,3.4,433.0,"107 Quai Jean de Béthencourt, 76100 Rouen, France",49.4410425,1.0728461,u0bc22,u0bc2,2.0 km,25 mins
ChIJr-c7Xtbd4EcRNaonBzTn-u0,JACADI ROUEN GROS HORLOGE,shopping,store,"['furniture_store', 'home_goods_store', 'clothing_store']",,3.5,37.0,"17 Rue du Gros Horloge, 76000 Rouen, France",49.4408476,1.0932541,u0bc2b,u0bc2,0.2 km,3 mins
ChIJ__-bv07e4EcRp-463htPHPs,Velo Gervais,shopping,store,['bicycle_store'],,5.0,1.0,"22 Rue Anatole France, 76300 Sotteville-lès-Rouen, France",49.4071476,1.0861684,u0bc0d,u0bc0,4.4 km,57 mins
ChIJw4uJ303d4EcR5Qc3SDy3NeQ,CRUS,shopping,store,['liquor_store'],,3.7,3.0,"12 Rue Eugène Boudin, 76000 Rouen, France",49.4421889,1.0937076,u0bc2b,u0bc2,0.4 km,5 mins
ChIJacrzWGve4EcRzIg_YgYBhk8,SSI SYSTEMES,shopping,store,['electronics_store'],,5.0,4.0,"129 Rue Meridienne, 76174 Rouen, France",49.4261481,1.0810119,u0bc0t,u0bc0,2.0 km,26 mins
ChIJiyjXgave4EcRM-2VkqYWuOo,Resistes,shopping,store,"['book_store', 'furniture_store', 'home_goods_store']",,4.2,137.0,"10/12 Rue Richard Waddington, 76160 Darnétal, France",49.4362973,1.1447936,u0bc4p,u0bc4,3.9 km,50 mins
ChIJeb66ZXXe4EcRIyG2e_gIUAU,Rhumerie Gibier de Potence,night_life,bar,,,4.5,271.0,"80 Quai du Havre, 76000 Rouen, France",49.4410089,1.0828815,u0bc28,u0bc2,1.1 km,13 mins
ChIJ3xEgcnDe4EcRSAqSTdWI1xQ,Malouet Design,shopping,store,"['home_goods_store', 'furniture_store']",,3.8,12.0,"76 Rue Président Kennedy, 76140 Le Petit-Quevilly, France",49.4318514,1.0573824,u0bc0n,u0bc0,3.8 km,48 mins
ChIJAXTFaDrc4EcRxbo_IFDaOUc,Aux Caprices d'Eloïse,shopping,store,['bakery'],,4.2,67.0,"50 Rue d'Etancourt, 76420 Bihorel, France",49.45471,1.1160615,u0bc36,u0bc3,2.7 km,41 mins
ChIJd5lpg6ze4EcRq8IY2oJ5WVI,Burod'oc,shopping,store,"['furniture_store', 'home_goods_store']",,4.0,37.0,"2 Rue Richard Waddington, 76160 Darnétal, France",49.4355545,1.1466391,u0bc4p,u0bc4,4.0 km,50 mins
ChIJzX2IFX_e4EcRMtcp9EDDtRY,AUBERGE SAINT MACLOU,food,restaurant,,,4.4,363.0,"222 Rue Martainville, 76000 Rouen, France",49.439782,1.099849,u0bc30,u0bc3,0.4 km,5 mins
ChIJGd6Wp7zd4EcRK5liOub7Hxg,Parc du Village,nature,park,,,4.2,95.0,"Unnamed Road 76130, 76130 Mont-Saint-Aignan, France",49.4712716,1.0873176,u0bc2t,u0bc2,4.1 km,1 hour 0 mins
ChIJSQIzukjf4EcRB6eZN_aO1E4,Pho 76,food,restaurant,,,4.5,118.0,"13 Rue de la Champmesle, 76000 Rouen, France",49.439327,1.0914921,u0bc2b,u0bc2,0.3 km,4 mins
ChIJGZgoayrc4EcRKWNIQg5z5EY,Csam,food,restaurant,,,3.9,53.0,"132 Rue Saint-Hilaire, 76000 Rouen, France",49.4423957,1.1071958,u0bc30,u0bc3,1.2 km,15 mins
ChIJG9nMv3rf4EcR2AQCP9_Jh84,Croq Select St Sever Rouen,food,restaurant,,,4.8,33.0,"94 Rue Lafayette, 76100 Rouen, France",49.4319447,1.0880792,u0bc0y,u0bc0,1.1 km,15 mins
ChIJWY_piEPn4EcRLexTkXijE1I,McDonald's,food,restaurant,['meal_takeaway'],,3.2,1250.0,"75 Rue du Canal, 76380 Canteleu, France",49.458696,1.043483,u0b9re,u0b9r,4.9 km,1 hour 2 mins
ChIJJxzuFuDd4EcRLAlcMM05dSo,Manger la Nuit rouen,food,restaurant,"['meal_delivery', 'meal_takeaway']",,3.7,301.0,"42 Quai Gaston Boulet, 76000 Rouen, France",49.4424961,1.0795013,u0bc28,u0bc2,1.4 km,17 mins
ChIJB1E36Tfn4EcRpaAXVXoSLZk,Claude Richard,shopping,store,['bakery'],,4.0,55.0,"10 Pl. Jean Jaurès, 76380 Canteleu, France",49.4512346,1.0353187,u0b9rd,u0b9r,5.4 km,1 hour 15 mins
ChIJUwFWUtXd4EcR76vw1-hr4hc,"Florabel, Fleurs a Rouen",shopping,store,['florist'],,4.7,50.0,"2 Pl. Saint-Vivien, 76000 Rouen, France",49.4416997,1.1027107,u0bc30,u0bc3,0.8 km,10 mins
ChIJqwJ5jBDe4EcRR2VkaRWsBZ4,Le Progrès,night_life,bar,,,4.4,71.0,"150 Av. de Caen, 76100 Rouen, France",49.4286856,1.0701945,u0bc0q,u0bc0,2.5 km,33 mins
ChIJdSRy-3He4EcRCxbB-lBfYNU,Le Souflet,food,restaurant,,,4.6,14.0,"6 Rue de l'Abbé Lemire, 76100 Rouen, France",49.4317235,1.0864295,u0bc0w,u0bc0,1.2 km,16 mins
ChIJP2Eqp6re4EcRdSZLDhxnb58,Frou-Frou,shopping,store,['clothing_store'],,4.9,11.0,"54 Rue Sadi Carnot, 76160 Darnétal, France",49.4408799,1.1467919,u0bc60,u0bc6,4.2 km,53 mins
ChIJTZ5lS9bd4EcRi1ppY25TSKQ,Bambou,food,restaurant,,,4.0,302.0,"39 Rue Grand Pont, 76000 Rouen, France",49.4400111,1.0929803,u0bc2b,u0bc2,0.2 km,2 mins
ChIJ_wx1i9bd4EcR9VytTl2ZsFQ,Claude Nee Bijoutier,shopping,store,['shoe_store'],,3.0,1.0,"76000 Rouen, France",49.4442091,1.0962647,u0bc2c,u0bc2,0.6 km,7 mins
ChIJc1JEo3_e4EcRhkm1qNgi46g,Kenzy,shopping,store,['clothing_store'],,3.5,30.0,"7 Rue de l'Hôpital 5, 76000 Rouen, France",49.4425005,1.0973633,u0bc2b,u0bc2,0.6 km,7 mins
ChIJAZHNFxfe4EcRxbSmbVohVAw,Parc Parmentier,nature,park,,,3.3,3.0,"Rue Parmentier, 76100 Rouen, France",49.4250934,1.0708186,u0bc0m,u0bc0,2.6 km,33 mins
ChIJXydMBHbe4EcRVZIkPqfMItY,Rouen Bike Sarl,shopping,store,['bicycle_store'],,3.2,196.0,"45 Rue Saint-Eloi, 76000 Rouen, France",49.4410134,1.0866405,u0bc28,u0bc2,0.7 km,9 mins
ChIJQXiBFqHg4EcRCrhNTJySNnY,Ibis,accommodation,lodging,,,4.3,3.0,"76140 Le Petit-Quevilly, France",49.4254016,1.0550592,u0bc0j,u0bc0,3.7 km,48 mins
ChIJHX8RptXd4EcRigYhfDQiYS8,Cathédrale Notre-Dame de Rouen,cultural,church,"['tourist_attraction', 'place_of_worship']",,4.7,11758.0,"Pl. de la Cathédrale, 76000 Rouen, France",49.4401736,1.095008,u0bc2b,u0bc2,5 m,1 min
ChIJDcjcpHPe4EcRSETG3LGmIjg,Tissus des Ursules Rouen / Tissuland Rouen,shopping,store,['home_goods_store'],,3.8,201.0,"11 Rue de Malherbe, 76100 Rouen, France",49.4346611,1.0837412,u0bc0x,u0bc0,1.3 km,17 mins
ChIJNzLcT9_d4EcRDpcX8i38zyM,Courtin Boutique,shopping,store,['electronics_store'],,4.5,42.0,"4 Rue aux Ours, 76000 Rouen, France",49.4402318,1.0928206,u0bc2b,u0bc2,0.2 km,2 mins
ChIJ40nnspLd4EcRg1LcQjJ6E5U,Boucherie Colbert Maison Gréaume,shopping,store,['liquor_store'],,4.6,27.0,"22 Pl. Colbert, 76130 Mont-Saint-Aignan, France",49.462313,1.0720909,u0bc2k,u0bc2,3.4 km,50 mins
ChIJ50getn_e4EcRe27kRIYNdP8,Boulangerie Rivière,shopping,store,['bakery'],,4.0,48.0,"116 Rue Martainville, 76000 Rouen, France",49.4393564,1.1012761,u0bc30,u0bc3,0.5 km,6 mins
ChIJVVUh_Dfe4EcROD7-wuVpsUU,Le Gout Authentique,food,restaurant,,,5.0,3.0,"182 Av. du 14 Juillet, 76300 Sotteville-lès-Rouen, France",49.4107452,1.0792521,u0bc0d,u0bc0,3.8 km,49 mins
ChIJc7A1v4ne4EcRyi0mTJfk2WI,LE FIVE Rouen,night_life,night_club,"['bar', 'store']",,4.5,475.0,"181 Av. du Grand Cours, 76100 Rouen, France",49.4276551,1.1038609,u0bc1n,u0bc1,2.4 km,30 mins
ChIJodHumtjd4EcR1TnbEFyW-sY,Hôtel de Bourgtheroulde,accommodation,lodging,,,4.5,1504.0,"15 Pl. de la Pucelle, 76000 Rouen, France",49.4419918,1.0882674,u0bc2b,u0bc2,0.6 km,7 mins
ChIJCfQgC__d4EcRIPQ_iUeDIVI,Fluvial,cultural,museum,['tourist_attraction'],,4.0,61.0,"Hangar 13, Quai Emile Duchemin, 76000 Rouen, France",49.4445109,1.0597984,u0bc21,u0bc2,2.8 km,35 mins
ChIJCfl09Hfe4EcRcCAHCHun1Go,ERISAY RÉCEPTIONS ROUEN Traiteur,food,restaurant,"['meal_delivery', 'store']",,4.5,20.0,"39 Rue aux Ours, 76000 Rouen, France",49.4405498,1.0915581,u0bc2b,u0bc2,0.3 km,3 mins
ChIJ9-nFfuHd4EcRBPHjg2IzHJw,Styl Bar,night_life,bar,['restaurant'],,4.2,56.0,"92 Av. du Mont Riboudet, 76000 Rouen, France",49.4443362,1.0755622,u0bc23,u0bc2,1.7 km,21 mins
ChIJh6ZbohHe4EcRuKM_JIEulQ8,Bedding & Sofa International,shopping,store,"['furniture_store', 'home_goods_store']",,1.0,1.0,"114 Av. de Caen 112, 76100 Rouen, France",49.4293449,1.0730117,u0bc0q,u0bc0,2.3 km,30 mins
ChIJsQuJ9Yvd4EcR6tdCw0ucRmM,GYNÉKOLOC,night_life,bar,,,4.8,16.0,"1 Rue Saint-Nicaise, 76000 Rouen, France",49.4436595,1.1025467,u0bc30,u0bc3,1.0 km,13 mins
ChIJtTOnkHfe4EcRWh5T1vh4DnQ,Get Out ! Rouen - Escape Game,cultural,tourist_attraction,,,4.7,458.0,"15 Rue Jacques Lelieur, 76000 Rouen, France",49.4395747,1.0907233,u0bc2b,u0bc2,0.3 km,4 mins
ChIJHcnplnje4EcRMTpsP4USVoA,Historial Jeanne d’Arc,cultural,museum,['tourist_attraction'],,4.5,1408.0,"7 Rue Saint-Romain, 76000 Rouen, France",49.4404181,1.0958709,u0bc2b,u0bc2,0.3 km,4 mins
ChIJh9bVwa3d4EcRO5kXATbLrxI,Eglise Sainte Marie,cultural,church,['place_of_worship'],,4.5,133.0,"35 Rue de la Vatine, 76130 Mont-Saint-Aignan, France",49.4731722,1.0999505,u0bc3n,u0bc3,4.5 km,1 hour 3 mins
ChIJcWr3X9jd4EcRjMew4Xdwy9A,JM's Café,night_life,bar,"['restaurant', 'cafe']",2.0,4.1,1983.0,"2 Pl. du Vieux Marché, 76000 Rouen, France",49.4426645,1.0889292,u0bc2b,u0bc2,0.6 km,7 mins
ChIJzV0zm3_e4EcRjSEt1EqVifY,ALI FOOD HOUSE,food,restaurant,,,3.7,40.0,"63 Rue d'Amiens, 76000 Rouen, France",49.4406833,1.1005799,u0bc30,u0bc3,0.6 km,7 mins
ChIJSY9eg3Pd4EcRRkvB0vlSx4A,l'atelier de Severine,shopping,store,"['furniture_store', 'home_goods_store']",,5.0,1.0,"NODAL, 29 Rue Desseaux, 76100 Rouen, France",49.4307225,1.0932526,u0bc0y,u0bc0,1.3 km,17 mins
ChIJy4yfwETe4EcRSzwt-o08WJQ,Maison de la Presse,shopping,store,['book_store'],,3.7,50.0,"33 PLACE DE L'HOTEL DE VILLE, 76300 Sotteville-lès-Rouen, France",49.414361,1.0901168,u0bc0g,u0bc0,3.3 km,42 mins
ChIJLezmh9Xd4EcRXGVwJggLjE4,Ho Lamian,food,restaurant,,2.0,4.4,626.0,"243 Rue Eau de Robec, 76000 Rouen, France",49.4414083,1.0995179,u0bc30,u0bc3,0.5 km,7 mins
ChIJUZWdo9fd4EcR5lcgzupuT3U,Chaussures Trouvé Mephisto,shopping,store,['shoe_store'],,3.1,25.0,"53 Rue Ganterie, 76000 Rouen, France",49.4434689,1.0935627,u0bc2b,u0bc2,0.6 km,7 mins
